name,lat,lon,population,elevation_m,dist_to_river_km,elev_above_river_m,swe_mar2024_mm,swe_mar_pct_norm,precip_novmar_mm,precip_novmar_pct_norm
Ганькино,54.8872159,70.1104856,105,136.0,54.64,50.0,121.1,148.8,113.0,84.5
Новоишимское,53.2025913,66.7929531,7474,183.0,2.4,41.0,121.6,152.1,128.6,86.7
Сергеевка,53.880951,67.415863,8112,151.0,1.15,29.0,107.5,141.3,120.0,84.7
Имантау,52.9767986,68.3662059,1877,331.0,10.84,6.0,136.0,146.8,119.5,84.0
Тайынша,53.847736,69.761436,13037,159.0,2.06,7.0,64.0,134.0,104.2,88.8
Чистополье,52.5617672,67.250694,2078,268.0,0.52,23.0,146.3,156.3,135.9,86.5
Леонидовка,53.967728,69.529213,559,150.0,16.85,14.0,80.4,147.0,111.4,90.9
Талшик,53.6433864,71.8767545,3922,77.0,21.25,-37.0,43.4,84.3,92.8,83.6
Казанское,53.758011,71.667969,378,111.0,23.12,-3.0,47.7,96.5,96.0,83.9
Аксай,53.8858349,71.7522188,63,103.0,38.27,-11.0,62.9,106.1,97.1,84.3
Восходское,54.0110223,71.7696188,324,85.0,52.03,-29.0,85.4,122.1,98.2,84.8
Баймырза,54.1895179,71.7826683,215,111.0,65.94,61.0,69.4,123.5,101.1,85.4
Амандык,53.467529,70.401955,423,190.0,25.66,48.0,31.5,82.4,92.7,84.4
Жанадаур,53.39994,70.478836,72,217.0,28.77,75.0,43.7,95.8,90.4,83.2
Ильичёвка,53.502098,70.388092,446,211.0,23.84,69.0,31.5,82.4,92.7,84.4
Келлеровка,53.8399016,69.3021305,2487,169.0,25.81,5.0,77.1,155.7,106.0,87.9
Черниговское,53.9016285,69.0069999,92,158.0,45.82,-55.0,91.9,160.4,111.1,89.6
Красная Поляна,53.941536,68.982285,576,155.0,44.31,-1.0,91.9,160.4,111.1,89.6
Доброжановка,53.966927,69.049385,77,149.0,47.47,-15.0,77.9,152.9,111.8,89.7
Глубокое,53.856407,69.045097,16,169.0,41.64,2.0,91.9,160.4,111.1,89.6
Нагорное,53.961876,69.410736,48,149.0,24.6,14.0,79.4,145.8,111.8,91.2
Дружба,52.586021,66.491188,567,201.0,0.83,25.0,116.7,153.5,134.9,92.1
Дауит,53.6091041,71.4755852,612,117.0,9.42,-3.0,43.4,84.3,92.8,83.6
Алкатерек,53.45146,71.244014,539,219.0,21.35,90.0,45.2,88.1,90.7,82.3
Целинное,53.5573909,70.7104133,26,164.0,8.36,22.0,46.9,92.8,92.4,83.7
Аккудук,53.655956,70.810074,851,145.0,4.59,27.0,47.3,94.3,94.1,84.0
Мамлютка,54.9376951,68.5386509,6944,136.0,32.62,38.0,112.3,142.6,112.2,83.2
Покровка,54.3010634,68.3552371,1643,116.0,0.44,9.0,98.2,147.3,113.2,86.1
Петропавловск,54.8668104,69.1334984,222703,138.0,2.03,44.0,114.7,145.0,115.0,84.8
Булаево,54.896652,70.447189,8550,135.0,72.27,50.0,118.8,150.0,111.2,83.7
Токуши,54.85788,69.717262,1634,141.0,37.93,35.0,113.2,148.4,115.2,85.1
Полудино,54.862617,69.919205,1221,130.0,47.55,46.0,117.4,149.8,114.3,85.0
Чистое,54.915241,70.724121,125,118.0,86.6,37.0,120.0,149.7,110.1,83.6
Каракога,54.904881,70.816818,1726,127.0,92.43,46.0,116.1,149.6,109.5,83.5
Пресновка,54.6686113,67.1452217,6202,149.0,68.19,35.0,107.4,134.5,104.7,76.9
Айыртау,53.1585244,68.333889,478,321.0,15.92,52.0,126.7,152.3,119.7,86.3
Лобаново,53.092365,68.433052,1056,382.0,17.39,58.0,127.3,150.8,118.6,84.9
Баянтай,53.261093,67.929214,270,309.0,6.39,60.0,127.6,158.5,127.8,87.2
Казанка,53.3201718,67.449134,544,222.0,0.57,15.0,127.0,158.1,130.0,86.2
Шукирлик,53.2726138,67.7886323,162,270.0,10.23,24.0,127.0,158.5,128.2,86.8
Глубокое,55.1557926,68.9474596,298,134.0,15.84,45.0,116.1,141.0,104.8,77.5
Налобино,55.2455423,68.7915428,920,147.0,29.83,55.0,117.1,140.5,104.6,77.2
Пресновка,55.0909817,69.0272651,764,111.0,7.84,22.0,115.2,141.7,109.5,80.8
Бостандык,53.948696,71.406944,464,93.0,41.48,-6.0,67.0,109.1,97.2,84.1
Кишкенеколь,53.6357326,72.3411085,6590,139.0,31.34,69.0,43.4,84.3,92.8,83.6
Акжаркын,53.6813187,71.3078338,468,129.0,22.97,15.0,46.1,91.4,94.1,83.0
Камышлово,54.782906,69.674385,203,141.0,37.09,35.0,119.1,149.0,116.2,86.0
Рузаевка,52.821907,66.952431,3339,222.0,0.47,16.0,142.7,154.0,138.3,86.7
Сивковка,52.848736,66.981255,354,223.0,0.48,7.0,142.7,154.0,138.3,86.7
Ломоносовка,52.803749,66.465874,687,198.0,0.65,25.0,122.2,152.4,133.5,89.8
Ставрополка,52.835926,66.559067,571,190.0,1.02,22.0,130.7,153.8,134.0,89.4
Белое,54.936493,69.203117,924,136.0,4.93,41.0,117.9,143.8,115.5,84.9
Новоникольское,55.02475,69.493172,122,137.0,16.44,47.0,119.9,143.5,114.3,83.7
Пеньково,54.965187,69.244598,1079,134.0,7.63,45.0,117.5,142.5,113.9,83.6
Тахтаброд,52.633469,67.579048,1027,269.0,0.6,7.0,153.1,155.8,135.4,86.0
Бесколь,54.775146,69.097794,13149,111.0,3.44,17.0,113.5,146.3,116.2,86.1
Чапаево,54.631702,69.152771,374,142.0,12.16,45.0,114.4,150.8,118.5,88.3
Кырымбет,52.459782,67.76239,30,334.0,12.74,41.0,150.5,156.6,133.2,87.2
Ковыльное,52.5746,67.687767,361,301.0,0.44,16.0,153.5,155.0,135.1,86.1
Сокологоровка,52.507038,67.873611,287,375.0,9.74,66.0,152.0,155.8,132.7,87.3
Привольное,52.6008281,67.8253627,7,315.0,0.39,11.0,153.8,155.4,134.9,86.3
Аканбурлык,52.6149159,68.049995,223,364.0,0.44,8.0,157.1,155.1,133.9,86.4
Акшокы,52.68491,67.880547,21,369.0,9.09,57.0,158.8,154.2,135.7,85.6
Красново,52.5966847,67.907696,19,323.0,0.27,2.0,155.3,155.2,134.4,86.4
Куспек,52.742474,67.998177,568,368.0,12.91,21.0,160.1,153.5,135.0,85.5
Тимирязево,53.7481615,66.4954458,3998,172.0,46.32,39.0,114.5,141.6,117.4,83.6
Вишневка,54.9407291,69.0741755,111,100.0,1.61,9.0,114.7,145.0,115.0,84.8
Якорь,54.959206,69.034576,2060,102.0,3.8,9.0,112.3,143.9,112.9,83.4
Затон,54.8549472,68.9933737,174,107.0,3.31,14.0,111.9,145.7,114.7,84.9
Кривоозёрка,54.8717546,68.99711,142,103.0,3.25,7.0,111.9,145.7,114.7,84.9
Тепличное,54.8329505,69.0915477,785,100.0,2.48,7.0,113.5,146.3,116.2,86.1
Прибрежное,54.819756,69.090256,1793,103.0,2.7,11.0,113.5,146.3,116.2,86.1
Знаменское,54.901402,69.597755,932,145.0,29.97,48.0,117.4,146.8,115.5,85.1
Михайловка,54.892441,69.462555,82,138.0,21.36,41.0,115.8,145.6,115.9,85.1
Байсал,54.895233,69.553108,128,137.0,27.13,40.0,117.4,146.8,115.5,85.1
Ленинское,54.473019,69.182556,1083,142.0,25.44,42.0,109.2,153.4,118.1,88.8
Смирново,54.51453,69.419189,5650,137.0,33.39,40.0,109.2,151.3,118.2,88.8
Рощинское,54.058678,69.143158,419,138.0,42.28,3.0,97.8,153.0,113.1,90.6
Архангельское,54.7801156,68.9461997,845,112.0,1.79,17.0,110.4,146.5,115.5,86.0
Новокаменка,54.711693,68.983734,995,105.0,1.08,11.0,110.8,146.8,117.8,87.9
Петерфельд,54.912373,68.887779,1579,129.0,11.48,33.0,110.8,145.5,114.2,84.7
Подгорное,54.7128156,69.0232742,506,113.0,0.38,12.0,110.8,146.8,117.8,87.9
Боголюбово,54.6174536,68.7288167,1210,111.0,2.59,10.0,106.4,145.7,115.3,86.9
Приишимка,54.611111,68.855843,376,109.0,0.35,11.0,109.5,148.1,118.1,88.7
Водопроводное,54.555283,68.728447,343,117.0,0.77,17.0,106.4,145.7,115.3,86.9
Красная Горка,54.5550524,68.7689396,331,130.0,0.67,28.0,107.4,146.4,116.7,87.8
Новоникольское,54.527195,68.686737,1474,113.0,1.15,12.0,103.7,148.1,115.0,87.1
Золотоноша,52.826229,67.170753,30,303.0,11.82,79.0,149.2,154.5,138.1,86.0
Червонное,53.2771558,66.7276043,1075,195.0,10.34,40.0,112.5,152.0,125.8,86.6
Бахмут,53.9553438,69.6563407,154,147.0,9.36,11.0,82.5,146.2,110.6,90.1
Виноградовка,53.852486,69.885887,181,152.0,2.92,5.0,79.9,149.5,106.7,89.2
Мироновка,53.840008,69.839554,520,154.0,1.12,6.0,64.0,134.0,104.2,88.8
Чермошнянка,53.956871,69.776093,617,145.0,3.94,9.0,82.2,147.1,110.1,89.7
Вишневка,53.928841,70.116203,645,145.0,12.94,5.0,76.5,136.3,103.9,87.9
Зелёный Гай,53.9415782,70.4052003,1323,131.0,8.93,26.0,45.9,108.3,101.1,86.8
Ясная Поляна,53.948624,70.280006,1368,138.0,17.04,33.0,54.6,116.7,101.9,87.0
Новоприречное,53.795761,69.71405,311,161.0,1.16,6.0,69.0,141.1,105.2,89.1
Кантемировское,54.145618,70.074486,133,141.0,21.28,5.0,82.4,141.9,111.0,88.1
Кирово,54.149075,70.3215452,480,135.0,26.05,30.0,87.4,140.8,109.0,87.0
Котовское,54.296768,70.103928,76,135.0,37.04,-1.0,94.1,150.7,113.4,88.2
Многоцветное,53.886616,69.540169,407,160.0,15.52,4.0,76.4,147.7,108.4,89.7
Тендик,53.992543,69.8575413,312,140.0,0.48,5.0,83.3,149.4,109.6,89.3
Заречное,53.770763,69.769211,219,165.0,1.68,9.0,64.0,134.0,104.2,88.8
Надеждинка,53.913223,69.860298,44,144.0,1.7,1.0,79.9,149.5,106.7,89.2
Октябрьское,53.71431,69.668915,46,172.0,0.77,10.0,66.3,132.2,102.4,88.1
Тапшил,53.573334,70.037659,10,207.0,28.69,48.0,55.1,112.8,97.7,86.7
Большой Изюм,53.719046,69.63546,1191,174.0,0.42,8.0,69.8,137.9,103.0,88.3
Драгомировка,53.7520402,69.3697642,522,181.0,17.68,14.0,74.7,152.4,105.6,88.1
Иван-Город,53.7731746,69.3236261,231,179.0,21.26,12.0,77.1,155.7,106.0,87.9
Обуховка,53.679047,69.398209,362,185.0,14.88,16.0,71.4,146.2,103.8,88.1
Белоярка,53.783981,70.242401,109,155.0,26.61,13.0,52.3,111.8,99.1,87.0
Донецкое,53.805855,70.097076,553,153.0,17.18,8.0,59.5,117.4,100.3,87.5
Краснокиевка,53.746407,70.227455,343,149.0,27.91,4.0,48.1,106.4,97.6,86.6
Новогречановка,53.862225,70.424812,382,122.0,12.63,17.0,45.9,108.3,101.1,86.8
Новодворовка,53.849495,70.310371,145,140.0,18.97,35.0,52.6,110.4,98.3,86.7
Подольское,53.829334,70.079849,463,152.0,14.93,10.0,59.5,117.4,100.3,87.5
Агроном,54.190063,70.534271,99,133.0,26.21,34.0,98.5,142.4,107.3,86.0
Ильич,54.142712,70.545845,366,132.0,20.91,33.0,89.7,139.4,105.9,85.9
Молодогвардейское,54.0950466,70.7952992,418,126.0,18.92,40.0,76.6,128.3,102.5,85.0
Возвышенка,54.437664,70.941399,1932,127.0,57.57,41.0,97.4,146.3,107.6,86.4
Золотая Нива,54.2091188,70.8748844,264,127.0,32.51,41.0,83.7,135.0,103.6,85.4
Медвежка,54.870277,70.436485,640,133.0,73.09,48.0,118.8,150.0,111.2,83.7
Новоивановка,53.882401,69.696236,143,159.0,7.8,8.0,76.0,142.8,107.9,89.7
Берёзовка,53.5643554,69.3276584,28,231.0,23.89,61.0,78.2,146.8,102.1,87.7
Горькое,53.630962,69.152756,490,211.0,31.68,41.0,76.2,147.0,103.0,87.4
Летовочное,53.735115,68.980431,541,223.0,36.98,9.0,83.2,156.4,106.7,87.3
Любимовка,53.789822,69.179337,169,181.0,30.86,14.0,80.0,157.9,106.6,87.8
Подлесное,53.714844,68.990486,255,218.0,37.24,4.0,83.2,156.4,106.7,87.3
Трудовая Нива,54.663868,69.194862,65,142.0,11.88,46.0,114.2,147.9,118.0,87.5
Мичурино,53.3954853,66.6237321,406,195.0,24.27,49.0,111.5,150.4,123.6,85.9
Вознесенка,54.67017,68.81662,445,111.0,3.1,9.0,107.5,145.3,116.3,87.1
Надёжка,54.62022,68.811348,316,107.0,2.16,5.0,107.4,146.4,116.7,87.8
Ольшанка,55.009148,69.102615,379,98.0,0.27,9.0,114.5,143.4,113.4,83.5
Соколовка,55.11763,69.203369,2432,103.0,0.46,18.0,113.9,142.2,111.9,82.1
Большая Малышка,55.096394,69.227661,939,97.0,0.89,10.0,113.9,142.2,111.9,82.1
Коктерек,54.489746,69.461533,176,130.0,37.17,33.0,109.3,150.4,118.0,88.8
Григорьевка,54.626225,69.545738,33,137.0,34.17,41.0,113.2,149.6,118.3,88.0
Трудовое,54.552261,69.486176,706,138.0,34.38,42.0,113.2,149.6,118.3,88.0
Кенжегалы,54.540993,69.564445,109,130.0,39.31,34.0,110.4,150.9,117.7,88.8
Аралагаш,54.342682,69.172279,324,129.0,34.78,31.0,98.8,151.4,116.9,90.3
Рублёвка,54.270718,69.143616,617,131.0,38.4,29.0,98.2,150.8,116.8,90.1
Кременчуг,53.897041,69.267227,143,158.0,31.45,-6.0,77.4,153.8,108.8,89.4
Сарыбай,54.0371175,69.1737805,9,128.0,39.98,-7.0,29.8,156.8,112.7,91.4
Асаново,54.853539,69.452156,1231,140.0,21.23,34.0,115.8,145.6,115.9,85.1
Явленка,54.3462508,68.4566996,5928,133.0,0.7,33.0,97.7,147.7,112.3,85.8
Бирликское,53.041672,66.721931,791,179.0,0.67,28.0,124.2,148.7,133.1,87.3
Ефимовка,53.149876,66.773178,383,183.0,0.77,38.0,125.5,148.2,131.2,86.6
Токсан би,52.962101,66.622246,561,185.0,0.43,23.0,119.8,149.7,132.1,87.8
Нежинка,53.059357,66.739822,1206,184.0,1.15,36.0,123.0,148.6,130.3,87.1
Старобелка,52.982792,66.829201,202,241.0,9.21,89.0,136.9,152.2,134.6,86.9
Ивановка,54.631046,69.990372,642,136.0,61.8,42.0,115.2,151.4,116.5,87.4
Полтавка,54.502052,69.781807,807,138.0,53.67,42.0,109.0,151.4,117.1,88.6
Черкасское,54.368376,69.7677017,698,137.0,40.9,2.0,105.3,151.7,116.7,89.5
Власовка,54.199375,69.603462,619,138.0,25.15,3.0,93.9,151.5,115.0,90.6
Киялы,54.200649,69.649261,1705,138.0,24.0,3.0,93.9,151.5,115.0,90.6
Шагалалы,54.1781318,69.5230735,1113,136.0,26.22,1.0,95.8,151.8,115.4,90.9
Астраханка,54.511875,69.232262,735,140.0,24.05,40.0,109.2,153.4,118.1,88.8
Бескудук,54.047737,68.087105,273,165.0,11.58,4.0,104.3,151.3,118.4,87.5
Волошинка,53.889011,67.978714,589,176.0,11.13,6.0,107.0,153.0,119.7,87.1
Орнек,54.143215,67.791847,162,134.0,1.05,22.0,102.2,147.4,115.9,84.6
Ясновка,53.981533,68.216652,613,165.0,0.42,5.0,101.6,151.4,118.5,88.3
Николаевка,54.205807,67.804298,1312,129.0,2.0,17.0,101.8,144.8,113.9,83.8
Спасовка,54.349106,67.721245,135,145.0,18.67,31.0,103.5,142.3,112.1,82.7
Петровка,54.302021,68.221336,1122,123.0,3.57,9.0,98.6,143.6,111.8,84.5
Чириковка,54.399506,68.616119,844,119.0,1.58,16.0,102.4,147.8,113.8,86.6
Тарангул,54.1698,68.429443,489,147.0,13.49,34.0,97.1,148.7,115.2,87.5
Корнеевка,54.00486,68.421883,1969,164.0,7.06,8.0,41.2,154.7,117.1,88.9
Булак,53.870007,68.391533,390,177.0,12.18,-14.0,100.5,158.1,116.5,88.6
Ильинка,54.2030973,68.0059602,944,143.0,1.37,39.0,99.0,145.4,113.5,84.3
Заградовка,53.844063,68.610909,829,168.0,22.14,-24.0,94.7,161.6,113.4,88.3
Володарское,52.661465,66.595833,578,195.0,0.49,18.0,122.8,152.4,134.5,90.6
Жарколь,52.5745729,66.3971613,14,227.0,6.89,49.0,117.8,155.6,135.0,92.3
Целинное,52.6059,66.490768,648,201.0,0.28,19.0,116.7,153.5,134.9,92.1
Виноградовка,55.2200765,69.086532,515,134.0,13.08,40.0,117.0,139.6,107.4,79.0
Гайдуково,55.322174,68.7733,51,136.0,35.34,42.0,117.1,139.3,104.1,76.5
Вагулино,55.150024,69.259735,613,101.0,1.62,7.0,114.5,140.7,109.9,80.3
Бугровое,55.048939,69.720924,564,138.0,23.97,52.0,118.9,145.6,113.6,83.7
Долматово,55.3167772,69.4561447,320,91.0,0.48,8.0,117.0,140.4,109.3,79.4
Байтерек,54.7371426,69.0677151,1666,109.0,1.56,15.0,111.9,147.6,118.0,87.7
Рассвет,54.475815,68.68837,671,141.0,1.62,38.0,103.7,148.1,115.0,87.1
Байтерек,54.9012441,70.0339128,658,135.0,49.83,49.0,120.6,148.8,113.8,84.8
Рявкино,54.979862,70.095688,47,134.0,48.14,49.0,116.8,149.5,112.3,83.8
Лебяжье,55.039898,70.839371,417,122.0,88.38,41.0,118.5,148.8,108.3,82.2
Метлишино,54.969437,69.623795,195,139.0,26.46,49.0,120.5,144.7,113.9,83.7
Ганькино,54.869091,70.119324,168,122.0,56.33,36.0,121.1,148.8,113.0,84.5
Тюменка,54.885094,69.778336,293,139.0,39.93,55.0,111.2,149.6,114.8,85.1
Толмачевка,54.8367908,69.3836859,77,139.0,17.54,33.0,119.3,145.9,117.0,86.1
Плоское,54.774399,69.478127,144,134.0,26.03,28.0,121.1,146.3,116.9,86.1
Гаврино,55.177998,69.963959,126,135.0,30.63,54.0,119.0,146.2,111.8,82.1
Зарослое,55.068386,70.231606,30,133.0,50.91,52.0,119.5,149.5,111.7,83.3
Ташкентка,55.0608911,69.2294455,243,131.0,0.69,41.0,113.9,142.2,111.9,82.1
Новотроицкое,54.941441,70.222183,227,133.0,57.27,48.0,120.0,149.1,112.3,84.1
Октябрьское,55.0304739,70.4233151,425,132.0,63.77,51.0,111.4,152.7,110.6,83.2
Хлебороб,54.962818,70.464844,198,134.0,69.47,53.0,111.7,153.4,110.3,83.1
Суворовка,55.098549,70.318291,38,132.0,54.78,51.0,119.3,149.5,111.1,83.1
Тищенко,54.866947,70.56736,94,130.0,80.56,49.0,120.9,149.1,110.6,83.7
Чистовское,54.895565,70.625801,950,119.0,82.09,38.0,120.9,149.1,110.6,83.7
Украинка,54.844982,70.585289,23,129.0,82.86,48.0,118.8,151.0,111.8,85.0
Майбалык,54.296463,70.509888,235,131.0,38.13,32.0,95.3,144.0,109.0,86.3
Пулеметовка,54.552135,70.423721,133,130.0,67.0,31.0,113.9,151.3,113.8,86.3
Таманское,54.482517,70.512383,462,130.0,58.76,31.0,103.3,148.3,112.0,86.6
Косколь,54.4303762,70.6339942,101,128.0,52.94,34.0,100.5,146.2,110.0,86.6
Советское,54.4322207,70.3431847,1365,135.0,54.79,30.0,100.2,151.0,112.6,87.0
Шандак,54.436375,70.751198,154,126.0,54.35,39.0,97.9,147.0,108.2,86.4
Придорожное,54.498676,70.345047,264,131.0,61.98,26.0,102.3,151.2,113.7,86.9
Достык,54.7590514,70.3366645,207,132.0,74.85,46.0,118.6,150.6,113.4,85.1
Полтавка,54.831326,70.311897,572,132.0,68.71,46.0,118.6,150.6,113.4,85.1
Жанажол,53.982719,67.608635,384,128.0,0.44,8.0,104.3,144.0,117.8,84.5
Жанаталап,53.9700811,67.5499431,98,139.0,1.21,16.0,108.2,142.2,117.9,84.2
Узынжар,53.537678,67.080902,492,156.0,1.21,23.0,113.4,147.9,124.5,85.4
Двинск,54.145901,68.403328,259,149.0,15.23,40.0,104.9,149.5,116.9,88.7
Лавровка,53.454784,68.35746,415,263.0,0.31,9.0,115.7,161.4,117.7,86.6
Дзержинское,53.612789,66.435074,219,178.0,44.57,45.0,108.4,141.0,118.6,83.8
Ленинское,53.3755636,66.3604841,191,200.0,36.35,45.0,112.0,150.3,123.5,85.9
Москворецкое,53.6791,66.362312,517,174.0,51.11,41.0,109.4,138.7,116.7,83.2
Андреевка,52.999763,67.381363,844,289.0,20.0,35.0,149.6,155.9,136.2,85.4
Макарьевка,54.501556,66.350296,111,160.0,94.86,41.0,104.3,130.9,104.4,76.0
Пресноредуть,54.5552732,66.1543393,420,168.0,110.53,44.0,100.0,126.7,100.7,73.6
Дубровное,54.814541,68.091301,690,148.0,47.47,49.0,113.1,139.7,108.7,81.0
Афонькино,54.905602,68.262001,571,147.0,45.86,48.0,112.1,142.5,110.7,82.1
Покровка,54.931152,68.631683,952,143.0,27.07,45.0,112.6,143.3,112.6,83.5
Қызылжар орман шаруашылығы,54.8302185,69.1262021,,103.0,4.72,10.0,113.5,146.3,116.2,86.1
Тепловское,54.8629738,69.2551484,,139.0,8.81,33.0,116.5,143.8,115.9,85.0
Кладбинка,54.736385,67.6147491,506,151.0,61.73,41.0,111.7,141.8,106.5,78.2
Пчелино,54.778366,67.937798,54,149.0,54.25,50.0,109.2,142.7,107.3,79.7
Сенжарка,54.7730787,67.8304133,74,148.0,58.32,41.0,110.7,143.0,107.1,79.3
Екатериновка,54.5942855,66.7049222,132,158.0,81.98,39.0,105.4,131.9,104.4,76.4
Светлое,54.586346,66.634529,57,162.0,84.82,43.0,106.8,131.4,103.9,76.0
Чапаевка,54.5086818,66.5132517,85,162.0,86.13,43.0,106.7,133.4,106.0,76.8
Будённое,54.623726,66.513252,488,160.0,93.51,41.0,103.7,130.7,102.8,75.2
Кабань,54.6611966,66.4859984,77,162.0,97.5,43.0,106.1,129.8,101.2,74.3
Калиновка,54.5925449,66.4565179,87,166.0,94.34,47.0,103.7,130.7,102.8,75.2
Казанка,54.718452,66.954659,596,146.0,80.4,32.0,105.4,134.0,104.3,76.6
Узынколь,54.59211,67.152664,167,149.0,61.44,35.0,107.8,137.5,106.7,78.1
Айымжан,54.543686,67.090912,223,153.0,60.6,39.0,108.7,137.9,108.6,79.2
Святодуховка,54.484962,66.783897,354,153.0,70.25,34.0,109.1,134.0,107.3,78.0
Благовещенка,54.369076,66.97139,2806,157.0,52.84,38.0,109.7,137.7,110.6,80.1
Украинское,54.116165,66.659279,426,166.0,56.6,48.0,110.9,139.1,114.5,81.3
Новое,54.091621,66.53981,58,164.0,62.79,43.0,110.2,135.9,113.1,80.4
Кайранколь,54.032894,66.369087,653,165.0,69.36,32.0,104.7,137.1,113.2,81.1
Комсомольское,53.754959,66.402031,419,171.0,52.05,38.0,105.6,135.6,115.0,82.6
Хмельницкое,53.824615,66.061569,449,181.0,75.52,48.0,113.1,135.2,113.4,81.1
2632 км,54.8565139,69.2607726,,139.0,9.43,33.0,116.5,143.8,115.9,85.0
Краснознамённое,54.976139,68.806702,654,134.0,18.46,41.0,113.2,143.0,111.4,82.4
Горьковское,54.1858669,71.9383977,653,116.0,56.82,66.0,69.4,123.5,101.1,85.4
Арыкбалык,52.953907,68.198669,2050,392.0,5.4,66.0,148.0,148.2,123.7,84.9
Петровка,53.6162693,70.4615564,1204,166.0,14.34,24.0,45.7,96.9,93.6,84.6
Чкалово,53.625412,70.43367,2849,167.0,16.1,25.0,44.0,98.2,94.4,85.2
Нижний Бурлук,52.771709,68.169281,584,369.0,12.65,-3.0,143.9,150.8,129.2,84.5
Айсаринское,53.294186,71.898643,235,181.0,25.75,17.0,37.1,79.0,88.8,81.9
Аккудык,53.128433,72.34227,189,174.0,38.11,76.0,51.1,99.0,84.3,80.2
Золотая Нива,52.962009,71.943108,47,195.0,56.68,31.0,45.3,97.2,81.6,78.9
Карсаковка,52.798553,67.771004,101,288.0,1.98,6.0,154.1,155.1,135.0,86.0
Шоптыколь,52.43047,66.749649,415,204.0,0.47,18.0,128.6,155.4,134.5,91.7
Ялты,52.4594302,67.194389,381,274.0,0.74,13.0,137.8,157.9,134.2,87.8
Верхний Бурлук,52.839413,68.307625,217,416.0,14.53,29.0,145.2,150.6,128.4,84.4
Боровское,54.875137,68.8351312,163,131.0,12.81,33.0,111.9,144.6,113.3,84.1
Кондратовка,54.884083,68.808029,561,133.0,14.79,35.0,111.9,144.6,113.3,84.1
Измайловка,54.8892174,68.8511832,13,130.0,12.77,37.0,110.8,145.5,114.2,84.7
Актуесай,53.9165399,72.6553586,605,66.0,2.31,16.0,62.9,106.1,97.1,84.3
Бидайык,54.0295008,72.7368342,850,124.0,11.93,76.0,85.4,122.1,98.2,84.8
Целинное,53.9890371,66.0713217,184,168.0,83.94,35.0,109.4,131.1,110.7,79.8
Караагаш,54.323322,68.899139,176,134.0,21.63,29.0,108.8,150.9,115.4,88.8
Куприяновка,53.3391,66.959091,224,179.0,1.74,40.0,117.4,153.3,127.8,86.3
Акбулак,53.406972,72.4177394,429,128.0,44.43,58.0,49.2,92.9,90.2,82.7
Вознесенка,55.020363,68.95623,122,108.0,9.56,18.0,112.3,143.9,112.9,83.4
Каратал,53.86311,67.467735,465,148.0,2.46,16.0,105.2,143.1,120.1,85.0
Ыскака Ыбыраева,53.933348,67.5846568,463,140.0,2.35,24.0,103.3,145.5,120.1,85.3
Арай,53.752785,67.547203,710,178.0,9.07,44.0,117.8,144.6,122.5,85.8
Ленинградское,53.534927,71.546295,2296,131.0,0.63,10.0,41.9,84.9,91.6,83.4
Краснокаменка,53.731476,68.891396,284,229.0,31.17,15.0,87.5,158.2,107.8,87.3
Саумалколь,53.2940231,68.1060457,11639,306.0,14.35,45.0,131.3,156.6,124.1,87.2
Разгульное,52.396862,66.681755,364,204.0,0.39,12.0,128.6,155.4,134.5,91.7
Белое,55.061985,68.476593,643,138.0,40.47,48.0,118.1,139.8,107.3,79.1
Воскресеновка,54.880726,68.470741,840,142.0,34.22,44.0,112.3,142.6,112.2,83.2
Андреевка,54.515923,68.276672,540,142.0,18.46,35.0,104.0,144.7,110.8,83.8
Кызыласкер,54.426903,67.804146,423,156.0,25.48,46.0,100.4,139.8,109.1,81.3
Леденёво,54.699867,68.538467,520,137.0,17.02,38.0,108.0,144.0,112.5,84.5
Бике,54.614407,67.66539,326,149.0,47.79,39.0,103.9,139.0,107.1,78.9
Новомихайловка,54.654854,68.193947,780,140.0,33.91,38.0,110.4,141.0,109.7,82.0
Берёзовка,55.0142306,69.1710894,435,134.0,2.65,44.0,117.5,142.5,113.9,83.6
Ақсуат,53.612885,66.558327,682,182.0,36.64,49.0,109.5,144.0,119.9,84.4
Есиль,53.58086,66.803749,87,178.0,20.07,45.0,116.8,144.4,121.4,84.8
Антоновка,53.315826,68.434509,1044,285.0,14.19,25.0,114.9,154.9,116.6,86.5
Горное,53.841141,68.541351,195,164.0,17.82,-28.0,98.9,162.2,114.8,88.3
Орлиногорское,53.8115673,68.538841,45,226.0,16.51,34.0,98.9,162.2,114.8,88.3
Белоградовка,53.464417,66.630424,337,192.0,27.11,52.0,116.9,147.2,121.7,85.1
Приозёрное,53.749657,66.561279,10,174.0,42.74,41.0,112.9,142.1,118.3,84.0
Дашко-Николаевка,53.927147,70.341217,321,136.0,13.35,31.0,54.6,116.7,101.9,87.0
Карлуга,54.62233,68.881004,110,108.0,1.42,9.0,109.5,148.1,118.1,88.7
Новопокровка,53.729725,67.751305,620,184.0,22.72,50.0,123.4,152.3,123.6,86.9
Щучье,55.152699,68.504646,130,137.0,41.21,42.0,117.1,140.5,104.0,76.5
Караганды,54.666092,71.055885,568,130.0,83.98,44.0,110.1,147.1,106.7,84.9
Надёжка,54.7420524,71.0130941,539,128.0,91.22,41.0,112.4,147.8,107.6,84.9
Бинаш,54.820618,70.881683,153,127.0,97.87,40.0,116.1,148.5,108.5,84.0
Еремеевка,54.757515,70.890701,155,129.0,91.07,42.0,116.1,148.5,108.5,84.0
Ногайбай,54.881763,70.926979,82,127.0,99.9,46.0,115.1,149.1,108.6,83.3
Образец,54.875397,70.796257,222,129.0,92.73,48.0,116.1,149.6,109.5,83.5
Буденное,53.1812535,66.5524077,492,201.0,15.3,54.0,120.2,153.3,127.4,87.2
Куприяновка,53.221336,66.506973,21,200.0,19.79,56.0,118.0,153.7,127.3,87.2
Жамбыл,53.8894492,73.1089828,255,48.0,0.31,2.0,62.9,106.1,97.1,84.3
Ондирис,53.9784697,72.8934674,325,59.0,10.62,26.0,85.4,122.1,98.2,84.8
Кайрат,52.913689,73.55146,225,76.0,0.6,6.0,41.1,93.4,80.2,78.2
Мортык,53.5622505,72.9286611,388,123.0,22.35,53.0,43.4,84.3,92.8,83.6
Тельжан,53.660759,72.602715,346,125.0,14.9,55.0,47.7,91.8,94.2,83.7
Мальцево,54.2653401,68.3061657,174,131.0,0.68,22.0,98.3,145.5,112.6,85.4
Енбек,54.2487695,68.2516418,106,135.0,0.57,24.0,95.8,146.5,114.8,86.7
Есильское,54.2562283,68.2175455,135,120.0,0.51,13.0,98.6,143.6,111.8,84.5
Барневка,55.1645146,69.4042147,157,114.0,1.02,31.0,113.8,140.9,110.9,80.8
Семипалатное,54.4478457,68.6460797,203,112.0,1.5,15.0,102.4,147.8,113.8,86.6
Писаревка,54.63208,70.732681,319,130.0,75.82,43.0,104.6,150.7,110.4,85.7
Бастомар,54.528683,70.796867,472,128.0,64.95,41.0,99.9,149.6,108.8,86.0
Веселовка,54.577446,70.596321,180,130.0,69.23,36.0,106.9,150.6,111.6,86.0
Новоалександровка,54.496716,68.504807,180,116.0,7.95,12.0,104.2,146.4,112.6,85.4
Шаховское,54.7318153,69.3548342,740,141.0,19.79,48.0,117.1,147.7,118.3,87.2
Стрельниковка,53.9887247,68.3268526,150,161.0,2.18,5.0,49.9,152.6,118.1,88.8
Аксу,53.8229855,67.8078908,160,179.0,18.61,57.0,108.0,148.2,121.8,86.7
Жанасу,53.8326866,67.8870696,127,176.0,16.62,2.0,109.0,150.3,121.4,87.0
Карасай батыра,53.125417,68.0360983,259,285.0,3.37,9.0,133.8,154.1,126.9,86.3
Агынтай батыра,53.0620564,68.0518484,392,289.0,0.4,2.0,130.4,153.4,125.1,86.1
Орловка,53.1711642,68.0668688,92,267.0,0.61,6.0,128.8,154.6,124.4,86.8
Чистое,55.101256,68.3427794,118,134.0,49.63,36.0,113.8,140.9,105.8,78.0
Шалкар,53.1775137,68.5159591,487,319.0,8.16,-6.0,118.5,150.1,114.2,85.5
Жарколь,52.5101306,66.7043414,59,200.0,0.77,13.0,128.6,155.4,134.5,91.7
Сухорабовка,53.5736874,67.6029499,479,204.0,8.15,25.0,113.9,155.8,125.6,86.7
Становое,54.8205997,68.3186393,187,144.0,36.49,45.0,117.8,138.8,110.6,82.5
Александровка,54.2347464,68.1394609,427,132.0,0.81,25.0,96.5,144.7,113.8,85.1
Дайындык,54.5021537,69.0646453,177,141.0,17.71,40.0,110.4,153.2,117.9,88.8
Береке,54.9407252,69.8863836,154,137.0,39.84,51.0,117.4,149.8,114.3,85.0
Калугино,55.035027,68.7929902,232,128.0,20.09,38.0,113.2,143.0,111.4,82.4
Беловка,55.0665882,68.799088,210,131.0,20.49,36.0,113.2,143.0,108.1,79.9
Коваль,55.0501661,68.2970537,46,138.0,51.67,48.0,113.8,140.9,105.8,78.0
Токты,52.568994,67.4070882,99,260.0,0.29,7.0,149.1,157.0,135.7,86.1
Литвиновка,52.5853205,67.4967383,170,262.0,0.25,6.0,152.0,156.9,135.6,85.8
Салкынколь,52.5590287,67.4251127,242,262.0,0.36,10.0,149.1,157.0,135.7,86.1
Рухловка,52.7000541,67.6423072,50,274.0,0.35,5.0,158.6,154.6,136.7,85.2
Гусаковка,52.7506068,67.6686143,619,279.0,0.08,2.0,155.2,156.0,136.3,86.1
Матвеевка,52.8346101,67.8094625,177,289.0,2.28,7.0,154.1,155.1,135.0,86.0
Константиновка,52.8362175,67.8628921,802,298.0,5.0,16.0,153.0,153.8,133.9,85.9
Целинное,52.9028195,68.0451965,130,361.0,12.85,50.0,143.5,152.1,129.2,85.4
Горное,52.9292208,68.2443023,95,425.0,8.6,100.0,140.2,149.2,125.8,84.4
Красногорка,53.2729127,68.2108926,259,288.0,15.03,21.0,125.6,156.0,121.6,87.0
Галицино,53.3412386,68.2065367,36,291.0,10.59,31.0,125.6,156.0,121.6,87.0
Новоукраинка,53.3163262,67.9793858,858,303.0,13.13,54.0,128.4,157.4,126.2,87.3
Косколь,53.3417894,67.8201055,38,267.0,16.5,13.0,127.0,158.5,128.2,86.8
Заря,53.5154604,68.5305905,83,269.0,8.6,25.0,110.1,159.8,115.0,86.2
Жумысшы,53.5017169,68.5305691,70,273.0,8.67,29.0,110.1,159.8,115.0,86.2
Уголки,53.3217738,68.4860659,58,290.0,14.44,-16.0,110.5,153.3,113.8,86.1
Комаровка,53.3221071,68.2865523,344,298.0,10.59,38.0,116.5,156.3,119.2,86.8
Акан сере,53.3400471,68.3157348,80,281.0,8.57,21.0,116.5,156.3,119.2,86.8
Береславка,52.7426055,67.3025035,112,358.0,9.66,76.0,152.9,155.0,137.7,85.8
Новосветловка,52.7572822,67.5023173,367,336.0,4.53,31.0,144.9,155.9,136.8,85.4
Баян,53.0021046,67.9594087,139,308.0,8.59,0.0,139.5,151.6,127.1,85.6
Шолакозек,53.5661593,68.1713676,63,246.0,14.58,12.0,116.8,162.9,120.9,87.0
Егиндыагаш,53.6037617,68.0490588,90,217.0,20.73,18.0,120.9,161.8,125.1,87.8
Сарыбулак,53.4724157,68.1568193,69,278.0,11.48,20.0,120.2,163.0,122.4,87.3
Шоккарагай,53.4446403,68.0835846,111,275.0,14.91,15.0,124.0,160.6,124.4,87.4
Междуозёрное,53.4500592,67.9525852,40,229.0,23.55,-31.0,126.4,160.8,126.9,88.0
Колесниковка,53.3616932,67.9582929,62,283.0,17.73,34.0,127.8,159.6,126.2,87.5
Елецкое,53.405541,67.9525852,321,260.0,22.53,11.0,127.8,159.6,126.2,87.5
Айыртауское,53.3851202,67.9955864,101,300.0,20.73,40.0,127.8,159.6,126.2,87.5
Сырымбет,53.4818786,67.9940414,430,237.0,21.75,-23.0,126.4,160.8,126.9,88.0
Сулуколь,53.5268526,67.8197837,96,236.0,22.9,58.0,133.0,160.6,127.6,87.6
Прекрасное,53.3757157,67.4134022,10,206.0,0.4,8.0,125.5,159.6,128.4,86.4
Никольское,53.2335395,67.518239,109,241.0,5.1,17.0,136.1,158.8,132.1,86.0
Никольско-Бурлукское,53.2128178,67.6370072,253,234.0,0.32,1.0,134.0,159.6,131.4,86.3
Всеволодовка,53.4379945,67.4226665,148,204.0,0.45,9.0,125.5,159.6,128.4,86.4
Бурлык,53.336985,67.4790358,130,244.0,1.45,26.0,127.9,158.9,130.0,86.3
Аксёновка,53.207986,67.4355411,293,250.0,10.94,28.0,133.7,157.5,131.7,85.9
Светлое,53.7956828,68.2084894,246,186.0,0.54,4.0,103.3,157.2,118.5,87.7
Укили Ыбырай,53.7074529,68.5959291,152,213.0,11.77,-1.0,101.8,165.1,114.1,88.0
Кумтоккен,53.7638582,68.5752975,243,208.0,13.87,-5.0,94.7,161.6,113.4,88.3
Камсакты,53.5797163,68.4649343,266,232.0,0.44,8.0,108.9,162.1,115.7,87.1
Бирлестик,53.5842513,68.3524274,389,235.0,4.61,8.0,110.4,162.6,117.5,87.0
Альжан,53.0645321,68.643372,152,389.0,14.08,58.0,118.3,146.2,112.5,84.1
Заря,53.0150673,68.6056709,136,388.0,10.79,13.0,122.1,145.7,113.8,83.4
Ботай,53.3041595,67.6472211,38,261.0,4.87,39.0,127.6,160.2,129.7,86.4
Каратал,53.3910836,67.6432514,285,253.0,12.11,28.0,124.0,158.9,128.1,86.5
Высокое,53.2772496,67.6776695,61,259.0,6.09,28.0,127.0,158.6,128.8,86.5
Каракамыс,53.6986121,68.268013,147,208.0,3.09,9.0,107.1,161.7,118.0,87.3
Даукара,53.6542022,68.1358337,274,213.0,12.76,14.0,112.1,159.4,121.1,87.3
Жаксы Жалгызтау,52.6421651,68.2249474,132,370.0,1.03,9.0,58.2,155.1,132.3,85.7
Сарысай,53.0826834,67.7342748,70,282.0,5.58,44.0,139.3,159.6,132.4,86.6
Петропавловка,53.0067014,67.695136,46,289.0,14.1,51.0,145.2,156.6,132.7,85.8
Карловка,53.0192238,67.7919101,42,311.0,13.37,74.0,143.4,155.1,130.8,85.8
Бурлык,53.1656074,67.9684638,56,260.0,0.71,5.0,128.0,156.0,126.7,87.0
Кутузовка,53.1910447,67.8534507,148,263.0,0.43,12.0,130.3,158.4,128.5,87.1
Кирилловка,53.1477267,67.7912511,749,254.0,0.63,12.0,136.1,158.4,130.5,86.5
Каменный Брод,53.0945653,67.6908874,497,257.0,4.71,20.0,139.3,159.6,132.4,86.6
Сарытубек,53.2005831,67.9444312,43,264.0,0.6,10.0,130.3,158.4,128.5,87.1
Уялы,54.1629868,72.2976779,350,128.0,36.68,78.0,69.4,123.5,101.1,85.4
Аксары,54.2971934,72.2644614,166,121.0,49.69,71.0,84.0,134.3,102.9,85.6
Ульгили,53.597446,72.0809125,252,98.0,32.67,-16.0,43.4,84.3,92.8,83.6
Тугуржап,53.5150011,71.9287347,37,128.0,22.45,-18.0,41.9,84.9,91.6,83.4
Майское,53.8957917,72.2666072,411,95.0,27.75,45.0,62.9,106.1,97.1,84.3
Кызылту,53.718933,71.5046024,387,109.0,19.09,-5.0,47.7,91.8,94.2,83.7
Кулыколь,53.7199259,71.9975228,671,66.0,32.46,-48.0,47.7,91.8,94.2,83.7
Карашилик,53.7794565,72.0460653,266,64.0,38.99,-50.0,47.7,96.5,96.0,83.9
Киши Караой,54.1047789,71.3787102,320,86.0,50.87,1.0,89.5,127.3,99.5,85.2
Байтус,53.989253,71.1807632,125,80.0,34.17,-19.0,75.4,128.0,98.7,84.4
Кенащы,54.0204148,71.0951686,203,93.0,30.37,8.0,78.8,125.3,98.8,84.3
Ащиколь,53.5948481,71.1249303,321,138.0,21.92,37.0,46.1,87.4,92.1,82.3
Безлесное,54.1278581,69.456017,88,134.0,25.74,-1.0,85.2,148.6,114.1,91.7
Каратомар,54.5032807,69.2173004,225,140.0,24.11,40.0,109.2,153.4,118.1,88.8
Амангельды,54.3259971,69.4720244,42,137.0,41.61,2.0,100.0,152.1,116.6,90.2
Степное,54.229668,69.52775,142,135.0,30.59,0.0,95.8,151.8,115.4,90.9
Южное,54.1012926,69.6309163,85,143.0,15.16,8.0,86.3,147.6,113.7,91.1
Борки,54.6260838,69.7526908,10,132.0,46.97,36.0,114.3,151.2,117.3,87.7
Барыколь,54.1755982,69.9659586,53,141.0,21.41,5.0,87.8,145.8,113.1,88.9
Кучковка,54.1470035,69.7863578,91,140.0,16.26,5.0,97.4,146.9,112.8,89.9
Добровольское,54.4030707,69.5706224,249,140.0,46.92,5.0,104.3,151.2,117.4,89.6
Новороссийское,54.3709461,69.9273991,52,134.0,42.15,-1.0,105.2,152.3,116.2,89.3
Талапкер,54.431638,68.3590364,41,124.0,8.09,17.0,101.9,145.5,111.8,85.0
Трудовое,54.5783551,68.4486866,273,140.0,15.44,38.0,113.9,142.7,111.7,84.2
Владимировка,54.4874042,68.1685352,41,143.0,20.04,35.0,103.0,143.7,110.0,83.0
Поляковка,54.3841563,68.4238815,43,115.0,1.68,11.0,101.9,145.5,111.8,85.0
Амангельдинское,54.355137,68.3443915,475,121.0,1.77,-1.0,101.4,144.6,111.0,84.2
Жаркайын,54.1861968,67.8326797,80,120.0,0.39,11.0,101.8,144.8,113.9,83.8
Мектеп,54.0520573,67.6722836,171,128.0,0.61,9.0,102.3,145.7,115.8,84.2
Новоандреевка,54.6872164,68.4011149,58,137.0,23.11,38.0,109.3,142.6,111.4,83.6
Бостандык,54.5696112,68.1605315,214,144.0,27.53,37.0,104.8,143.7,109.9,82.5
Бексеит,54.6072476,68.0857944,356,143.0,33.7,36.0,105.4,142.8,108.9,81.6
Луговое,54.3862681,68.5906505,40,116.0,1.55,8.0,102.4,147.8,113.8,86.6
Тонкошуровка,53.9038831,68.6848497,93,168.0,26.84,12.0,93.8,157.5,112.3,88.4
Степное,53.8285471,68.745017,79,174.0,27.05,-39.0,91.5,162.0,112.1,88.3
Ивано-Петровка,53.9233972,67.9904365,284,176.0,11.58,7.0,107.0,153.0,119.7,87.1
Лузинка,53.9194799,67.8829765,97,179.0,14.06,58.0,106.5,152.0,119.6,86.4
Актас,53.8510077,68.2069015,170,180.0,3.46,6.0,101.7,155.3,118.8,88.3
Карагай,53.8888116,68.2977962,121,185.0,7.29,18.0,99.3,157.6,117.7,88.5
Алабие,54.1109933,68.2352685,103,159.0,12.67,3.0,101.1,149.1,116.9,87.4
Черуновка,54.0460356,67.9920673,175,163.0,15.23,54.0,104.0,151.6,118.0,86.5
Тауагаш,54.3952761,67.8949713,283,148.0,20.62,38.0,98.6,140.2,108.7,81.5
Бирлик,54.2427105,68.1035614,155,118.0,0.57,13.0,96.5,144.7,113.8,85.1
Мадениет,54.2982828,68.1356191,29,130.0,4.4,19.0,99.5,142.3,111.2,83.7
Леонидовка,54.0768654,68.6955785,56,146.0,26.11,-10.0,90.9,154.4,112.9,88.1
Советское,54.0462372,68.4159851,209,163.0,7.98,7.0,41.2,154.7,117.1,88.9
Амангельды,54.1774318,67.9381871,60,134.0,0.52,29.0,101.4,145.6,113.5,83.9
Сарыман,54.310565,67.8216075,28,149.0,12.55,39.0,101.0,142.6,111.5,82.6
Ульги,54.3670585,67.1712684,27,158.0,42.73,39.0,107.4,139.6,110.8,80.5
Баян,54.3207286,67.4699591,440,156.0,25.99,42.0,107.4,141.4,112.5,81.9
Баймаганбета Изтолина,54.2579298,67.2894144,60,156.0,28.91,37.0,106.6,140.3,112.7,81.8
Архангелка,54.3835815,67.3846864,434,155.0,34.61,41.0,106.4,139.3,110.8,80.9
Айтуар,54.3206785,67.2158145,158,153.0,37.08,34.0,108.0,140.0,112.6,81.6
Озерное,54.2726424,66.2366795,430,171.0,88.94,53.0,100.4,130.3,106.5,77.5
Каракамыс,54.2530914,66.3540744,59,160.0,81.18,42.0,105.1,131.8,109.8,79.1
Сабит,54.4945581,66.6364574,96,164.0,78.59,45.0,106.2,134.6,106.7,77.4
Ольговка,54.3638081,66.6235828,36,162.0,72.24,47.0,109.8,134.8,110.1,79.0
Жанажол,54.3931274,66.490159,242,156.0,82.32,32.0,107.7,133.9,109.0,78.4
Бауманское,54.2327534,66.2374734,160,162.0,90.08,29.0,100.4,131.0,108.6,78.8
Майбалык,54.281738,66.7903089,164,162.0,58.76,47.0,110.8,136.0,111.8,80.2
Октябрь,54.6526087,67.7450037,25,141.0,50.72,31.0,111.0,142.4,106.9,78.7
Симаки,54.7320175,67.8026175,49,148.0,56.0,40.0,107.6,141.4,107.1,79.2
Новорыбинка,54.6625883,67.4094486,359,147.0,58.54,33.0,107.9,138.5,105.7,77.3
Миролюбово,54.6953399,67.4625349,145,146.0,60.53,32.0,110.2,140.3,106.2,77.7
Петровка,54.4954928,66.9772911,226,152.0,61.7,33.0,108.6,137.3,108.2,78.9
Мирное,54.5739026,67.3085975,416,144.0,53.43,30.0,109.0,138.6,107.1,78.3
Железное,54.7768806,67.3440456,361,148.0,71.84,34.0,108.9,136.9,104.1,76.5
Троицкое,54.4676933,67.6668548,535,148.0,32.32,34.0,101.8,137.8,107.9,79.7
Озерное,53.8539284,68.8841164,321,164.0,36.17,-49.0,92.9,159.3,110.9,88.9
Малое Белое,54.9002536,69.2763519,53,136.0,9.43,39.0,116.5,143.8,115.9,85.0
Гончаровка,55.2013817,69.4533562,97,131.0,0.74,43.0,118.2,140.1,111.1,80.9
Новогеоргиевка,55.0711684,69.8627042,29,136.0,30.23,51.0,118.8,148.4,112.8,83.0
Кондыбай,53.7484063,72.5124692,401,128.0,17.68,58.0,47.7,91.8,94.2,83.7
Кобенсай,53.7464014,72.7824497,373,76.0,0.19,3.0,47.7,91.8,94.2,83.7
Кузексай,53.8505015,72.6961898,108,57.0,7.12,17.0,62.9,106.1,97.1,84.3
Жас Улан,53.4194052,72.7573012,273,111.0,36.05,41.0,49.2,92.9,90.2,82.7
Карашилик,53.4267191,72.552123,145,124.0,38.31,54.0,49.2,92.9,90.2,82.7
Коктерек,53.4759917,73.1992435,251,124.0,27.35,42.0,41.9,84.9,91.6,83.4
Каратерек,53.9206425,73.5117101,181,128.0,2.71,6.0,62.9,106.1,97.1,84.3
Жаскайрат,53.0771667,73.5541105,139,79.0,4.37,14.0,51.1,99.0,84.3,80.2
Тлеусай,53.7318571,73.2736587,200,88.0,0.74,21.0,47.7,91.8,94.2,83.7
Амангельды,53.8235571,73.3421087,37,122.0,10.56,54.0,47.7,96.5,96.0,83.9
Кулыколь,52.7802874,73.7572288,718,82.0,0.96,2.0,41.2,91.7,79.4,77.7
Каратал,52.7425276,73.7021255,204,83.0,3.41,3.0,43.5,92.8,78.2,76.8
Береке,52.7437356,73.590846,152,86.0,7.31,0.0,43.5,92.8,78.2,76.8
Суатколь,54.1412345,66.9830417,10,162.0,39.83,38.0,110.8,143.0,116.0,82.9
Жаркен,54.0364451,67.0563389,248,165.0,29.49,47.0,110.1,144.2,117.8,83.7
Интымак,53.9418918,67.0826911,50,163.0,23.95,41.0,108.4,143.1,119.5,84.1
Дмитриевка,53.8988767,67.004671,454,167.0,28.17,45.0,108.2,143.6,119.2,84.0
Акжан,53.8024377,66.6982555,343,175.0,38.0,42.0,111.9,139.9,117.5,83.7
Рассвет,53.803971,66.5284824,35,180.0,48.02,45.0,105.1,136.6,115.7,83.0
Ракитное,53.9301611,66.8209458,50,168.0,39.35,35.0,104.3,141.5,117.6,83.4
Степное,53.8946412,66.8524809,469,166.0,35.09,33.0,107.3,143.4,118.5,83.8
Дружба,53.8469571,66.9298267,266,168.0,27.76,35.0,113.4,141.8,119.6,84.2
Северное,53.9985845,66.5322507,10,166.0,58.51,33.0,107.3,136.1,114.0,81.4
Докучаево,53.911973,66.4887856,613,172.0,55.63,39.0,105.8,135.6,114.8,82.2
Аймак,53.4569335,70.1337146,383,236.0,40.78,94.0,44.2,100.4,94.9,85.3
Талдыколь,53.5002747,70.7162904,7,177.0,14.65,35.0,43.2,89.6,90.8,83.0
Золоторунное,53.5743399,70.7659435,16,163.0,8.5,21.0,45.7,90.1,92.2,83.3
Калиновка,53.7243418,70.0766372,327,165.0,21.14,17.0,50.9,112.0,98.7,87.1
Константиновка,53.6939115,70.1492929,209,157.0,26.95,9.0,50.9,112.0,98.7,87.1
Караагаш,53.6301601,70.1149606,665,195.0,28.87,38.0,45.1,102.8,96.8,86.4
Красный Яр,55.3697588,69.3669891,61,96.0,0.5,11.0,115.9,138.5,107.2,77.8
Кустовое,55.1987611,69.3896699,263,102.0,1.81,13.0,113.8,140.9,110.9,80.8
Красноярка,55.2399127,69.4346237,324,99.0,0.46,11.0,113.8,140.9,110.9,80.8
Желяково,55.2908588,69.3978667,115,96.0,0.42,10.0,115.7,141.6,109.1,79.3
Караагаш,54.2256541,66.9441175,48,156.0,47.27,41.0,111.2,140.0,113.7,81.5
Жамбыл,54.2018675,66.9842842,323,158.0,44.01,43.0,112.1,140.4,114.2,82.1
Есперли,54.1121254,66.7873907,121,160.0,48.92,42.0,109.8,140.9,115.1,81.8
Сумное,55.3315612,69.0555095,149,132.0,17.81,44.0,122.0,136.9,106.1,77.7
Остановочный пункт 2603 км,54.8760221,68.8476544,32,131.0,12.25,33.0,111.9,144.6,113.3,84.1
Николаевка,55.196128,68.8156986,15,135.0,25.25,46.0,117.1,140.5,104.6,77.2
Дубровное,55.2754486,68.9101982,160,141.0,25.33,47.0,118.8,138.5,104.3,76.7
Орёл,54.9648539,68.3253908,37,138.0,46.27,40.0,113.7,141.8,108.9,80.5
Токаревка,54.7259833,68.2347107,113,143.0,34.55,44.0,110.4,141.0,109.7,82.0
Минкесер,54.5993676,67.9434871,796,144.0,39.13,36.0,105.4,140.2,107.6,80.0
Дачное,54.6272266,67.5014376,30,144.0,52.56,30.0,111.2,140.6,107.5,78.4
Степное,54.4578155,67.8199768,82,149.0,28.77,39.0,113.7,136.2,107.8,80.1
Раздольное,54.5642246,67.7935409,94,145.0,40.45,35.0,104.8,139.3,107.3,79.4
Новодубровное,54.8076973,67.9845142,163,146.0,52.98,47.0,111.0,141.1,108.0,80.3
Михайловка,54.9382866,67.8810882,448,139.0,66.38,40.0,111.0,142.9,107.2,79.6
2629 км,54.855286,69.2117075,,138.0,6.74,44.0,117.9,143.8,115.5,84.9
Сарыбулак,52.8805271,67.3163999,40,333.0,15.74,97.0,150.3,153.7,137.6,85.6
Мадениет,53.0012686,67.2152721,9,271.0,10.42,17.0,148.0,155.5,137.4,85.6
Кокалажар,52.9259016,67.0963322,419,246.0,0.54,15.0,146.4,154.3,138.5,86.0
Чернозубовка,52.6929291,66.6287558,271,191.0,0.49,20.0,122.8,152.4,134.5,90.6
Стерлитамак,52.7725291,66.5557902,31,191.0,0.75,24.0,130.7,153.8,134.0,89.4
Григорьевка,52.8004769,66.819501,25,220.0,1.09,26.0,132.1,153.1,135.8,87.9
Возвышенка,52.7977292,66.7524333,333,227.0,1.0,36.0,132.1,153.1,135.8,87.9
Брилёвка,52.767789,66.7150712,24,191.0,0.41,7.0,128.2,153.5,134.7,88.7
Раисовка,52.9180264,67.4657893,606,344.0,21.65,39.0,155.0,155.5,136.6,85.3
Жанасу,53.1061326,67.452007,46,293.0,15.27,55.0,143.5,157.0,133.7,85.8
Урожайное,52.7713953,66.5026458,732,197.0,0.51,31.0,122.2,152.4,133.5,89.8
Степное,52.7552454,66.4173739,36,207.0,5.33,40.0,117.0,151.5,133.3,89.9
Чернобаевка,52.8799684,67.012886,161,230.0,0.22,9.0,143.7,155.0,138.4,86.3
Берёзовка,52.9062602,66.9168747,240,247.0,6.08,25.0,141.5,154.9,137.0,86.8
Сарыадыр,52.7906559,67.0625215,130,258.0,5.81,42.0,146.6,154.9,138.6,86.3
Новоселовка,53.2008338,67.0367521,895,199.0,5.63,-9.0,123.9,152.0,130.3,86.3
Мукур,53.2926321,67.0654879,80,187.0,3.94,49.0,116.9,154.8,128.4,86.2
Шукырколь,53.1243801,67.3033995,391,265.0,16.4,47.0,140.5,155.1,133.7,85.5
Караагаш,53.0428349,67.154194,52,265.0,9.82,44.0,148.0,155.5,137.4,85.6
15 лет Казахстана,53.2095928,67.3511423,126,248.0,14.35,41.0,133.7,157.5,131.7,85.9
Конырсу,52.3559913,66.7162477,22,215.0,3.38,22.0,128.6,155.4,134.5,91.7
Большой Талсай,52.470635,66.76267,16,201.0,0.49,18.0,131.4,155.3,135.0,91.1
Симоновка,52.6464487,66.920633,31,225.0,0.51,12.0,136.2,155.1,136.5,89.2
Князевка,52.7283691,67.1480017,13,299.0,3.49,13.0,147.8,155.8,138.4,86.7
Дубровка,52.6041019,67.1266433,17,271.0,2.77,36.0,141.7,154.9,136.6,87.5
Гаршино,52.5535027,67.0469561,273,239.0,0.67,13.0,142.7,153.3,136.9,88.3
Пески,53.2529089,66.9178988,605,179.0,0.99,37.0,116.7,151.7,127.2,86.4
Конюхово,55.1299613,70.6509694,309,132.0,74.31,42.0,120.2,149.6,107.6,81.4
Малая Возвышенка,54.4139083,70.818371,19,127.0,52.73,40.0,97.9,147.0,108.2,86.4
Александровка,54.4323963,71.0879637,251,126.0,60.92,40.0,95.8,144.6,106.7,86.6
Дюсеке,54.7244325,70.9100427,78,128.0,87.71,41.0,110.6,149.5,108.6,84.9
Сарытомар,54.6385889,70.1635414,216,135.0,74.46,-1.0,114.2,151.7,115.7,87.0
Жастар,54.566559,70.2167163,194,131.0,67.72,-5.0,114.2,151.7,115.7,87.0
Куралай,55.0372697,70.8846804,228,115.0,91.23,34.0,115.8,149.2,107.9,82.3
Рощино,54.6666837,70.3587198,85,133.0,80.21,28.0,116.0,150.9,114.3,86.0
Сулышок,54.7612095,70.6189584,181,130.0,89.67,36.0,118.8,151.0,111.8,85.0
Успенка,54.7637599,70.5079364,367,132.0,84.43,51.0,119.2,150.5,112.4,85.0
Уваковское,54.7205307,70.6706714,57,131.0,85.28,37.0,115.8,151.5,110.7,85.1
Косколь,54.7043543,70.668869,23,129.0,83.48,35.0,115.8,151.5,110.7,85.1
Узунколь,54.462456,70.733238,475,127.0,57.07,40.0,101.3,149.8,109.8,86.2
Куломзино,55.2500656,70.4713725,117,133.0,61.03,45.0,131.4,144.6,109.4,81.2
Урожайное,54.8200002,70.7329845,19,129.0,92.3,48.0,117.8,151.0,110.6,84.5
Пролетарка,54.9735743,70.5453157,250,134.0,73.49,53.0,111.7,153.4,110.3,83.1
Садовка,53.4370231,67.3325872,61,214.0,6.33,19.0,122.0,157.2,127.9,86.3
Рясинка,53.4453564,67.2083044,79,205.0,6.63,72.0,117.9,153.5,127.2,86.1
Двойники,53.5838565,67.3073959,124,188.0,5.45,47.0,119.1,151.4,124.6,86.0
Афанасьевка,53.5032357,67.24092,400,207.0,7.15,74.0,112.9,150.4,125.2,85.7
Жалтыр,53.9634836,67.2003221,231,160.0,17.42,42.0,110.5,143.0,117.7,83.7
Мерген,53.8805149,67.1992492,339,162.0,15.35,40.0,106.3,142.8,119.5,84.3
Коноваловка,53.6485045,67.195301,58,143.0,2.61,7.0,121.5,148.9,123.9,85.5
Городецкое,53.7382034,67.1063804,387,165.0,11.03,32.0,118.6,145.1,122.3,85.0
Баганаты,53.7274141,67.2249126,28,158.0,6.04,25.0,134.2,147.2,122.9,85.4
Коктерек,53.9623475,67.6798582,71,141.0,1.55,19.0,103.6,146.0,117.6,84.8
Аканбарак,53.9128829,67.3781633,688,155.0,4.51,34.0,107.5,141.3,120.0,84.7
Повозочное,54.2425601,67.5386236,701,154.0,17.41,38.0,105.7,143.7,114.1,82.8
Ортаколь,54.2300004,67.4782312,32,157.0,18.17,38.0,105.7,143.7,114.1,82.8
Меней,54.2429612,67.6168584,108,153.0,13.32,37.0,104.6,144.0,114.1,83.1
Бирлик,54.1420941,67.6818752,252,138.0,4.41,24.0,102.3,145.7,115.8,84.2
Енбек,53.7556128,67.95825,56,182.0,14.7,4.0,104.5,152.3,120.8,87.3
Белоглинка,53.6770612,67.826972,21,187.0,25.05,8.0,123.4,152.3,123.6,86.9
Социал,53.6880668,67.3055076,104,164.0,3.78,30.0,131.6,147.3,123.4,85.7
Ровное,53.7714425,67.6053571,73,180.0,12.62,46.0,106.8,144.7,122.4,86.1
Алкаагаш,53.8114974,67.5909376,151,175.0,10.48,41.0,106.8,144.7,122.4,86.1
Кенес,54.0476734,67.5974607,248,141.0,2.84,25.0,104.3,144.0,117.8,84.5
Астаган,54.1140624,67.4065303,125,157.0,14.98,38.0,114.8,142.7,115.8,83.4
Ступинка,54.0147291,67.3786352,227,161.0,11.7,39.0,109.3,141.8,117.7,84.0
Семиполка,54.1257332,67.2814749,522,160.0,23.21,41.0,107.9,144.2,116.0,83.4
Балуан,54.2084526,67.1645093,40,162.0,33.15,47.0,109.6,142.6,114.5,82.6
Крещенка,53.4282278,67.0562982,465,171.0,0.69,37.0,114.4,150.8,126.5,85.9
Белоградовка,53.4953477,66.9956589,99,172.0,6.88,39.0,114.4,146.9,123.9,85.2
Ольгинка,53.532911,67.4555396,266,192.0,0.62,6.0,123.7,158.9,127.3,86.7
Богатыровка,53.8320424,69.3324422,98,172.0,23.67,8.0,77.1,155.7,106.0,87.9
Озерное,53.5066304,70.280528,150,221.0,29.6,79.0,32.3,85.5,93.4,84.6
Северное,53.6988916,69.6248245,49,170.0,0.26,2.0,69.8,137.9,103.0,88.3
Краснодольское,53.9555301,68.8276289,156,156.0,34.07,0.0,76.4,150.7,111.5,88.2
Южное,53.9757772,68.7356184,125,156.0,27.79,0.0,87.1,154.5,112.6,88.3
Новоберёзовка,53.6939115,70.3287649,34,156.0,24.06,14.0,53.7,107.1,96.7,86.2
Шункырколь,53.8672569,70.8470535,164,127.0,15.02,28.0,74.4,119.7,97.7,84.6
Тихоокеанское,53.9349446,70.8029151,390,120.0,10.24,35.0,74.4,119.7,97.7,84.6
Алабота,53.7980148,70.9733533,37,108.0,8.97,9.0,61.1,107.5,96.6,83.9
Макашевка,54.0519313,68.9453887,398,139.0,41.55,-17.0,82.8,149.0,111.0,88.2
Октябрьское,54.1004005,68.9015722,26,141.0,39.01,33.0,82.8,149.0,111.0,88.2
Краматоровка,54.0508228,68.9904069,63,137.0,44.46,-19.0,98.4,152.9,112.1,89.4
Димитровка,54.2334809,68.8958644,70,135.0,27.14,32.0,96.4,153.2,113.2,88.4
Талап,53.6837144,68.7998199,113,217.0,24.32,-5.0,92.1,161.3,109.8,87.5
Мадениет,53.62549,68.7238598,116,251.0,17.74,29.0,102.5,161.9,111.0,86.8
Привольное,53.2180602,66.9173812,950,180.0,0.8,33.0,123.7,152.1,129.4,86.5
Жамбыл,53.8386141,68.5289597,43,170.0,16.96,-22.0,98.9,162.2,114.8,88.3
Ивановка,54.6591319,68.9296519,,117.0,0.54,23.0,108.9,145.6,117.4,87.7
Искра,54.8169142,68.4480049,247,141.0,30.74,42.0,116.7,140.3,111.6,83.3
Каратал,54.2488791,67.975502,76,119.0,4.01,6.0,99.0,145.4,113.5,84.3
Сосновка,54.9350816,69.7138953,,136.0,33.01,52.0,113.2,148.4,115.2,85.1
Нурымбет,54.4560724,66.1028358,93,162.0,106.68,35.0,100.4,126.4,101.5,74.3
Жанажол,54.3539289,69.5487152,,135.0,42.25,0.0,105.7,151.2,117.7,89.6
