name,lat,lon,population,elevation_m,dist_to_river_km,elev_above_river_m,swe_mar2024_mm,swe_mar_pct_norm,precip_novmar_mm,precip_novmar_pct_norm
Ганькино,54.8872159,70.1104856,105,136.0,54.64,50.0,98.1,120.5,141.0,105.4
Новоишимское,53.2025913,66.7929531,7474,183.0,2.4,41.0,130.9,163.7,171.1,115.3
Сергеевка,53.880951,67.415863,8112,151.0,1.15,29.0,122.7,161.2,163.6,115.5
Имантау,52.9767986,68.3662059,1877,331.0,10.84,6.0,116.2,125.4,148.7,104.5
Тайынша,53.847736,69.761436,13037,159.0,2.06,7.0,90.5,189.5,130.5,111.3
Чистополье,52.5617672,67.250694,2078,268.0,0.52,23.0,119.6,127.8,160.3,102.0
Леонидовка,53.967728,69.529213,559,150.0,16.85,14.0,96.2,176.0,138.6,113.1
Талшик,53.6433864,71.8767545,3922,77.0,21.25,-37.0,78.3,152.1,107.0,96.4
Казанское,53.758011,71.667969,378,111.0,23.12,-3.0,79.3,160.3,112.2,98.1
Аксай,53.8858349,71.7522188,63,103.0,38.27,-11.0,89.1,150.3,114.5,99.4
Восходское,54.0110223,71.7696188,324,85.0,52.03,-29.0,96.4,137.9,116.3,100.5
Баймырза,54.1895179,71.7826683,215,111.0,65.94,61.0,84.4,150.2,121.5,102.6
Амандык,53.467529,70.401955,423,190.0,25.66,48.0,70.8,184.9,112.5,102.4
Жанадаур,53.39994,70.478836,72,217.0,28.77,75.0,79.6,174.4,109.5,100.7
Ильичёвка,53.502098,70.388092,446,211.0,23.84,69.0,70.8,184.9,112.5,102.4
Келлеровка,53.8399016,69.3021305,2487,169.0,25.81,5.0,92.0,185.8,138.3,114.7
Черниговское,53.9016285,69.0069999,92,158.0,45.82,-55.0,103.6,180.8,145.0,117.0
Красная Поляна,53.941536,68.982285,576,155.0,44.31,-1.0,103.6,180.8,145.0,117.0
Доброжановка,53.966927,69.049385,77,149.0,47.47,-15.0,95.7,187.9,145.1,116.4
Глубокое,53.856407,69.045097,16,169.0,41.64,2.0,103.6,180.8,145.0,117.0
Нагорное,53.961876,69.410736,48,149.0,24.6,14.0,97.2,178.4,139.1,113.5
Дружба,52.586021,66.491188,567,201.0,0.83,25.0,119.2,156.9,159.7,108.9
Дауит,53.6091041,71.4755852,612,117.0,9.42,-3.0,78.3,152.1,107.0,96.4
Алкатерек,53.45146,71.244014,539,219.0,21.35,90.0,75.5,147.2,106.0,96.1
Целинное,53.5573909,70.7104133,26,164.0,8.36,22.0,81.7,161.8,111.7,101.3
Аккудук,53.655956,70.810074,851,145.0,4.59,27.0,82.1,163.6,113.4,101.3
Мамлютка,54.9376951,68.5386509,6944,136.0,32.62,38.0,99.0,125.7,143.3,106.3
Покровка,54.3010634,68.3552371,1643,116.0,0.44,9.0,107.5,161.2,152.6,116.1
Петропавловск,54.8668104,69.1334984,222703,138.0,2.03,44.0,99.8,126.1,142.9,105.4
Булаево,54.896652,70.447189,8550,135.0,72.27,50.0,97.7,123.3,140.2,105.5
Токуши,54.85788,69.717262,1634,141.0,37.93,35.0,95.3,124.9,143.0,105.8
Полудино,54.862617,69.919205,1221,130.0,47.55,46.0,96.9,123.5,142.3,105.8
Чистое,54.915241,70.724121,125,118.0,86.6,37.0,98.4,122.7,141.3,107.3
Каракога,54.904881,70.816818,1726,127.0,92.43,46.0,95.7,123.2,140.9,107.4
Пресновка,54.6686113,67.1452217,6202,149.0,68.19,35.0,102.3,128.1,147.0,108.0
Айыртау,53.1585244,68.333889,478,321.0,15.92,52.0,115.6,138.9,151.2,109.0
Лобаново,53.092365,68.433052,1056,382.0,17.39,58.0,112.0,132.7,148.6,106.4
Баянтай,53.261093,67.929214,270,309.0,6.39,60.0,120.6,149.9,164.5,112.3
Казанка,53.3201718,67.449134,544,222.0,0.57,15.0,126.1,157.0,171.3,113.6
Шукирлик,53.2726138,67.7886323,162,270.0,10.23,24.0,120.9,150.8,165.7,112.2
Глубокое,55.1557926,68.9474596,298,134.0,15.84,45.0,94.9,115.3,139.3,103.0
Налобино,55.2455423,68.7915428,920,147.0,29.83,55.0,95.7,114.8,139.2,102.8
Пресновка,55.0909817,69.0272651,764,111.0,7.84,22.0,96.3,118.4,140.6,103.8
Бостандык,53.948696,71.406944,464,93.0,41.48,-6.0,91.5,149.1,115.6,100.1
Кишкенеколь,53.6357326,72.3411085,6590,139.0,31.34,69.0,78.3,152.1,107.0,96.4
Акжаркын,53.6813187,71.3078338,468,129.0,22.97,15.0,78.4,155.6,110.6,97.7
Камышлово,54.782906,69.674385,203,141.0,37.09,35.0,100.3,125.5,144.4,106.9
Рузаевка,52.821907,66.952431,3339,222.0,0.47,16.0,127.1,137.2,168.7,105.8
Сивковка,52.848736,66.981255,354,223.0,0.48,7.0,127.1,137.2,168.7,105.8
Ломоносовка,52.803749,66.465874,687,198.0,0.65,25.0,126.7,157.9,166.3,111.8
Ставрополка,52.835926,66.559067,571,190.0,1.02,22.0,129.6,152.5,165.7,110.6
Белое,54.936493,69.203117,924,136.0,4.93,41.0,101.9,124.2,143.1,105.2
Новоникольское,55.02475,69.493172,122,137.0,16.44,47.0,101.6,121.6,142.2,104.2
Пеньково,54.965187,69.244598,1079,134.0,7.63,45.0,100.0,121.3,142.0,104.2
Тахтаброд,52.633469,67.579048,1027,269.0,0.6,7.0,119.4,121.4,156.9,99.6
Бесколь,54.775146,69.097794,13149,111.0,3.44,17.0,100.9,130.0,144.8,107.2
Чапаево,54.631702,69.152771,374,142.0,12.16,45.0,102.4,135.0,148.4,110.7
Кырымбет,52.459782,67.76239,30,334.0,12.74,41.0,114.1,118.7,148.5,97.3
Ковыльное,52.5746,67.687767,361,301.0,0.44,16.0,118.4,119.6,155.2,98.9
Сокологоровка,52.507038,67.873611,287,375.0,9.74,66.0,113.2,116.1,147.0,96.7
Привольное,52.6008281,67.8253627,7,315.0,0.39,11.0,116.5,117.7,153.5,98.3
Аканбурлык,52.6149159,68.049995,223,364.0,0.44,8.0,114.5,113.0,150.3,97.0
Акшокы,52.68491,67.880547,21,369.0,9.09,57.0,118.5,115.0,156.5,98.7
Красново,52.5966847,67.907696,19,323.0,0.27,2.0,115.3,115.3,151.9,97.6
Куспек,52.742474,67.998177,568,368.0,12.91,21.0,117.7,112.9,154.7,98.0
Тимирязево,53.7481615,66.4954458,3998,172.0,46.32,39.0,125.0,154.6,163.0,116.0
Вишневка,54.9407291,69.0741755,111,100.0,1.61,9.0,99.8,126.1,142.9,105.4
Якорь,54.959206,69.034576,2060,102.0,3.8,9.0,96.5,123.6,141.6,104.5
Затон,54.8549472,68.9933737,174,107.0,3.31,14.0,97.4,127.0,142.8,105.7
Кривоозёрка,54.8717546,68.99711,142,103.0,3.25,7.0,97.4,127.0,142.8,105.7
Тепличное,54.8329505,69.0915477,785,100.0,2.48,7.0,100.9,130.0,144.8,107.2
Прибрежное,54.819756,69.090256,1793,103.0,2.7,11.0,100.9,130.0,144.8,107.2
Знаменское,54.901402,69.597755,932,145.0,29.97,48.0,97.7,122.2,143.2,105.5
Михайловка,54.892441,69.462555,82,138.0,21.36,41.0,97.6,122.7,143.3,105.2
Байсал,54.895233,69.553108,128,137.0,27.13,40.0,97.7,122.2,143.2,105.5
Ленинское,54.473019,69.182556,1083,142.0,25.44,42.0,104.3,146.6,149.1,112.1
Смирново,54.51453,69.419189,5650,137.0,33.39,40.0,105.9,146.9,147.6,110.9
Рощинское,54.058678,69.143158,419,138.0,42.28,3.0,107.6,168.3,144.0,115.3
Архангельское,54.7801156,68.9461997,845,112.0,1.79,17.0,99.8,132.4,144.9,107.9
Новокаменка,54.711693,68.983734,995,105.0,1.08,11.0,102.0,135.1,147.1,109.7
Петерфельд,54.912373,68.887779,1579,129.0,11.48,33.0,97.6,128.2,142.7,105.8
Подгорное,54.7128156,69.0232742,506,113.0,0.38,12.0,102.0,135.1,147.1,109.7
Боголюбово,54.6174536,68.7288167,1210,111.0,2.59,10.0,104.3,142.7,148.9,112.2
Приишимка,54.611111,68.855843,376,109.0,0.35,11.0,102.3,138.4,148.9,111.9
Водопроводное,54.555283,68.728447,343,117.0,0.77,17.0,104.3,142.7,148.9,112.2
Красная Горка,54.5550524,68.7689396,331,130.0,0.67,28.0,103.3,140.8,148.9,112.0
Новоникольское,54.527195,68.686737,1474,113.0,1.15,12.0,104.7,149.5,150.2,113.7
Золотоноша,52.826229,67.170753,30,303.0,11.82,79.0,126.0,130.5,167.8,104.5
Червонное,53.2771558,66.7276043,1075,195.0,10.34,40.0,126.1,170.4,170.0,117.1
Бахмут,53.9553438,69.6563407,154,147.0,9.36,11.0,97.3,172.3,138.3,112.6
Виноградовка,53.852486,69.885887,181,152.0,2.92,5.0,97.7,182.9,134.7,112.7
Мироновка,53.840008,69.839554,520,154.0,1.12,6.0,90.5,189.5,130.5,111.3
Чермошнянка,53.956871,69.776093,617,145.0,3.94,9.0,96.4,172.5,138.4,112.7
Вишневка,53.928841,70.116203,645,145.0,12.94,5.0,97.5,173.7,130.4,110.3
Зелёный Гай,53.9415782,70.4052003,1323,131.0,8.93,26.0,81.0,191.3,125.9,108.2
Ясная Поляна,53.948624,70.280006,1368,138.0,17.04,33.0,85.9,183.6,127.1,108.7
Новоприречное,53.795761,69.71405,311,161.0,1.16,6.0,92.3,188.8,132.5,112.2
Кантемировское,54.145618,70.074486,133,141.0,21.28,5.0,96.9,167.0,141.8,112.4
Кирово,54.149075,70.3215452,480,135.0,26.05,30.0,99.0,159.5,140.3,112.0
Котовское,54.296768,70.103928,76,135.0,37.04,-1.0,98.4,157.6,143.2,111.4
Многоцветное,53.886616,69.540169,407,160.0,15.52,4.0,94.1,182.1,136.8,113.2
Тендик,53.992543,69.8575413,312,140.0,0.48,5.0,96.7,173.4,138.4,112.8
Заречное,53.770763,69.769211,219,165.0,1.68,9.0,90.5,189.5,130.5,111.3
Надеждинка,53.913223,69.860298,44,144.0,1.7,1.0,97.7,182.9,134.7,112.7
Октябрьское,53.71431,69.668915,46,172.0,0.77,10.0,92.5,184.2,127.9,110.1
Тапшил,53.573334,70.037659,10,207.0,28.69,48.0,86.8,177.8,120.1,106.6
Большой Изюм,53.719046,69.63546,1191,174.0,0.42,8.0,94.2,186.0,129.5,111.0
Драгомировка,53.7520402,69.3697642,522,181.0,17.68,14.0,91.7,187.3,136.7,114.1
Иван-Город,53.7731746,69.3236261,231,179.0,21.26,12.0,92.0,185.8,138.3,114.7
Обуховка,53.679047,69.398209,362,185.0,14.88,16.0,92.2,188.8,132.7,112.6
Белоярка,53.783981,70.242401,109,155.0,26.61,13.0,86.4,184.8,122.3,107.5
Донецкое,53.805855,70.097076,553,153.0,17.18,8.0,91.1,180.0,124.4,108.5
Краснокиевка,53.746407,70.227455,343,149.0,27.91,4.0,83.6,185.1,120.0,106.4
Новогречановка,53.862225,70.424812,382,122.0,12.63,17.0,81.0,191.3,125.9,108.2
Новодворовка,53.849495,70.310371,145,140.0,18.97,35.0,86.5,181.7,121.0,106.7
Подольское,53.829334,70.079849,463,152.0,14.93,10.0,91.1,180.0,124.4,108.5
Агроном,54.190063,70.534271,99,133.0,26.21,34.0,102.8,148.6,138.4,110.9
Ильич,54.142712,70.545845,366,132.0,20.91,33.0,99.4,154.4,137.1,111.2
Молодогвардейское,54.0950466,70.7952992,418,126.0,18.92,40.0,94.0,157.4,131.0,108.7
Возвышенка,54.437664,70.941399,1932,127.0,57.57,41.0,96.2,144.4,136.8,109.8
Золотая Нива,54.2091188,70.8748844,264,127.0,32.51,41.0,93.1,150.1,131.0,108.0
Медвежка,54.870277,70.436485,640,133.0,73.09,48.0,97.7,123.3,140.2,105.5
Новоивановка,53.882401,69.696236,143,159.0,7.8,8.0,96.0,180.4,135.1,112.3
Берёзовка,53.5643554,69.3276584,28,231.0,23.89,61.0,96.3,180.9,130.1,111.8
Горькое,53.630962,69.152756,490,211.0,31.68,41.0,93.1,179.6,132.4,112.3
Летовочное,53.735115,68.980431,541,223.0,36.98,9.0,94.7,178.1,140.5,115.0
Любимовка,53.789822,69.179337,169,181.0,30.86,14.0,94.3,186.1,139.9,115.3
Подлесное,53.714844,68.990486,255,218.0,37.24,4.0,94.7,178.1,140.5,115.0
Трудовая Нива,54.663868,69.194862,65,142.0,11.88,46.0,101.7,131.7,146.9,108.8
Мичурино,53.3954853,66.6237321,406,195.0,24.27,49.0,125.2,168.9,169.1,117.5
Вознесенка,54.67017,68.81662,445,111.0,3.1,9.0,102.5,138.5,147.3,110.3
Надёжка,54.62022,68.811348,316,107.0,2.16,5.0,103.3,140.8,148.9,112.0
Ольшанка,55.009148,69.102615,379,98.0,0.27,9.0,97.8,122.5,141.8,104.4
Соколовка,55.11763,69.203369,2432,103.0,0.46,18.0,95.9,119.6,141.3,103.7
Большая Малышка,55.096394,69.227661,939,97.0,0.89,10.0,95.9,119.6,141.3,103.7
Коктерек,54.489746,69.461533,176,130.0,37.17,33.0,107.1,147.4,146.8,110.5
Григорьевка,54.626225,69.545738,33,137.0,34.17,41.0,104.8,138.5,146.9,109.3
Трудовое,54.552261,69.486176,706,138.0,34.38,42.0,104.8,138.5,146.9,109.3
Кенжегалы,54.540993,69.564445,109,130.0,39.31,34.0,107.7,147.3,146.1,110.2
Аралагаш,54.342682,69.172279,324,129.0,34.78,31.0,105.2,161.3,147.3,113.8
Рублёвка,54.270718,69.143616,617,131.0,38.4,29.0,105.1,161.3,148.0,114.2
Кременчуг,53.897041,69.267227,143,158.0,31.45,-6.0,94.4,187.4,139.6,114.7
Сарыбай,54.0371175,69.1737805,9,128.0,39.98,-7.0,34.9,183.5,142.3,115.4
Асаново,54.853539,69.452156,1231,140.0,21.23,34.0,97.6,122.7,143.3,105.2
Явленка,54.3462508,68.4566996,5928,133.0,0.7,33.0,107.5,162.3,151.6,115.7
Бирликское,53.041672,66.721931,791,179.0,0.67,28.0,130.8,156.6,172.0,112.8
Ефимовка,53.149876,66.773178,383,183.0,0.77,38.0,132.4,156.4,171.8,113.4
Токсан би,52.962101,66.622246,561,185.0,0.43,23.0,130.2,162.6,171.2,113.9
Нежинка,53.059357,66.739822,1206,184.0,1.15,36.0,132.3,159.8,171.2,114.4
Старобелка,52.982792,66.829201,202,241.0,9.21,89.0,133.9,148.9,173.4,111.9
Ивановка,54.631046,69.990372,642,136.0,61.8,42.0,103.5,136.0,144.2,108.1
Полтавка,54.502052,69.781807,807,138.0,53.67,42.0,104.2,144.8,145.0,109.8
Черкасское,54.368376,69.7677017,698,137.0,40.9,2.0,105.0,151.4,144.8,111.0
Власовка,54.199375,69.603462,619,138.0,25.15,3.0,102.2,165.0,143.5,113.0
Киялы,54.200649,69.649261,1705,138.0,24.0,3.0,102.2,165.0,143.5,113.0
Шагалалы,54.1781318,69.5230735,1113,136.0,26.22,1.0,104.6,165.9,143.7,113.3
Астраханка,54.511875,69.232262,735,140.0,24.05,40.0,104.3,146.6,149.1,112.1
Бескудук,54.047737,68.087105,273,165.0,11.58,4.0,113.7,165.0,157.2,116.2
Волошинка,53.889011,67.978714,589,176.0,11.13,6.0,113.0,161.6,159.1,115.8
Орнек,54.143215,67.791847,162,134.0,1.05,22.0,112.7,162.7,159.1,116.2
Ясновка,53.981533,68.216652,613,165.0,0.42,5.0,113.1,168.5,155.8,116.1
Николаевка,54.205807,67.804298,1312,129.0,2.0,17.0,113.6,161.5,157.7,116.1
Спасовка,54.349106,67.721245,135,145.0,18.67,31.0,114.5,157.5,156.5,115.4
Петровка,54.302021,68.221336,1122,123.0,3.57,9.0,110.6,161.1,154.0,116.3
Чириковка,54.399506,68.616119,844,119.0,1.58,16.0,106.7,153.9,151.7,115.4
Тарангул,54.1698,68.429443,489,147.0,13.49,34.0,109.1,167.2,152.6,116.0
Корнеевка,54.00486,68.421883,1969,164.0,7.06,8.0,45.3,169.9,152.2,115.6
Булак,53.870007,68.391533,390,177.0,12.18,-14.0,108.6,170.9,151.7,115.4
Ильинка,54.2030973,68.0059602,944,143.0,1.37,39.0,110.1,161.7,156.7,116.4
Заградовка,53.844063,68.610909,829,168.0,22.14,-24.0,102.8,175.3,149.4,116.3
Володарское,52.661465,66.595833,578,195.0,0.49,18.0,124.3,154.2,162.0,109.0
Жарколь,52.5745729,66.3971613,14,227.0,6.89,49.0,119.7,158.1,160.9,110.0
Целинное,52.6059,66.490768,648,201.0,0.28,19.0,119.2,156.9,159.7,108.9
Виноградовка,55.2200765,69.086532,515,134.0,13.08,40.0,98.1,117.0,140.1,102.9
Гайдуково,55.322174,68.7733,51,136.0,35.34,42.0,94.5,112.4,138.2,101.5
Вагулино,55.150024,69.259735,613,101.0,1.62,7.0,94.7,116.3,140.9,102.9
Бугровое,55.048939,69.720924,564,138.0,23.97,52.0,99.6,122.1,142.0,104.6
Долматово,55.3167772,69.4561447,320,91.0,0.48,8.0,95.0,114.0,139.6,101.5
Байтерек,54.7371426,69.0677151,1666,109.0,1.56,15.0,101.6,134.0,147.0,109.3
Рассвет,54.475815,68.68837,671,141.0,1.62,38.0,104.7,149.5,150.2,113.7
Байтерек,54.9012441,70.0339128,658,135.0,49.83,49.0,98.3,121.3,141.7,105.6
Рявкино,54.979862,70.095688,47,134.0,48.14,49.0,94.3,120.7,140.2,104.6
Лебяжье,55.039898,70.839371,417,122.0,88.38,41.0,95.8,120.3,140.6,106.7
Метлишино,54.969437,69.623795,195,139.0,26.46,49.0,101.1,121.4,142.1,104.4
Ганькино,54.869091,70.119324,168,122.0,56.33,36.0,98.1,120.5,141.0,105.4
Тюменка,54.885094,69.778336,293,139.0,39.93,55.0,94.2,126.8,142.7,105.8
Толмачевка,54.8367908,69.3836859,77,139.0,17.54,33.0,101.0,123.5,145.1,106.8
Плоское,54.774399,69.478127,144,134.0,26.03,28.0,101.8,123.0,145.0,106.8
Гаврино,55.177998,69.963959,126,135.0,30.63,54.0,96.4,118.5,140.8,103.4
Зарослое,55.068386,70.231606,30,133.0,50.91,52.0,95.7,119.7,139.1,103.7
Ташкентка,55.0608911,69.2294455,243,131.0,0.69,41.0,95.9,119.6,141.3,103.7
Новотроицкое,54.941441,70.222183,227,133.0,57.27,48.0,97.6,121.3,140.4,105.2
Октябрьское,55.0304739,70.4233151,425,132.0,63.77,51.0,91.8,125.9,139.4,104.9
Хлебороб,54.962818,70.464844,198,134.0,69.47,53.0,91.9,126.1,139.8,105.4
Суворовка,55.098549,70.318291,38,132.0,54.78,51.0,95.8,120.0,138.9,103.9
Тищенко,54.866947,70.56736,94,130.0,80.56,49.0,99.1,122.2,141.1,106.8
Чистовское,54.895565,70.625801,950,119.0,82.09,38.0,99.1,122.2,141.1,106.8
Украинка,54.844982,70.585289,23,129.0,82.86,48.0,99.0,125.9,141.6,107.7
Майбалык,54.296463,70.509888,235,131.0,38.13,32.0,98.8,149.4,139.8,110.7
Пулеметовка,54.552135,70.423721,133,130.0,67.0,31.0,99.7,132.4,141.9,107.6
Таманское,54.482517,70.512383,462,130.0,58.76,31.0,97.6,140.1,141.0,109.1
Косколь,54.4303762,70.6339942,101,128.0,52.94,34.0,98.2,142.9,140.2,110.4
Советское,54.4322207,70.3431847,1365,135.0,54.79,30.0,98.8,148.8,142.8,110.4
Шандак,54.436375,70.751198,154,126.0,54.35,39.0,96.6,145.0,138.2,110.4
Придорожное,54.498676,70.345047,264,131.0,61.98,26.0,96.9,143.3,142.5,108.9
Достык,54.7590514,70.3366645,207,132.0,74.85,46.0,98.8,125.5,141.4,106.2
Полтавка,54.831326,70.311897,572,132.0,68.71,46.0,98.8,125.5,141.4,106.2
Жанажол,53.982719,67.608635,384,128.0,0.44,8.0,119.1,164.4,161.2,115.7
Жанаталап,53.9700811,67.5499431,98,139.0,1.21,16.0,123.5,162.3,162.0,115.7
Узынжар,53.537678,67.080902,492,156.0,1.21,23.0,127.4,166.1,169.7,116.4
Двинск,54.145901,68.403328,259,149.0,15.23,40.0,113.7,161.9,152.7,115.9
Лавровка,53.454784,68.35746,415,263.0,0.31,9.0,111.2,155.1,155.2,114.1
Дзержинское,53.612789,66.435074,219,178.0,44.57,45.0,126.4,164.4,165.3,116.8
Ленинское,53.3755636,66.3604841,191,200.0,36.35,45.0,126.6,169.8,170.1,118.3
Москворецкое,53.6791,66.362312,517,174.0,51.11,41.0,124.6,157.9,162.5,115.8
Андреевка,52.999763,67.381363,844,289.0,20.0,35.0,130.5,136.0,172.7,108.3
Макарьевка,54.501556,66.350296,111,160.0,94.86,41.0,103.3,129.7,147.6,107.4
Пресноредуть,54.5552732,66.1543393,420,168.0,110.53,44.0,100.5,127.2,144.8,105.9
Дубровное,54.814541,68.091301,690,148.0,47.47,49.0,107.1,132.4,144.8,107.9
Афонькино,54.905602,68.262001,571,147.0,45.86,48.0,98.6,125.3,143.0,106.1
Покровка,54.931152,68.631683,952,143.0,27.07,45.0,99.7,126.9,143.2,106.2
Қызылжар орман шаруашылығы,54.8302185,69.1262021,,103.0,4.72,10.0,100.9,130.0,144.8,107.2
Тепловское,54.8629738,69.2551484,,139.0,8.81,33.0,100.8,124.5,143.3,105.1
Кладбинка,54.736385,67.6147491,506,151.0,61.73,41.0,103.9,131.9,149.3,109.6
Пчелино,54.778366,67.937798,54,149.0,54.25,50.0,102.5,133.9,145.2,107.9
Сенжарка,54.7730787,67.8304133,74,148.0,58.32,41.0,102.2,131.9,145.7,107.9
Екатериновка,54.5942855,66.7049222,132,158.0,81.98,39.0,104.4,130.6,146.4,107.0
Светлое,54.586346,66.634529,57,162.0,84.82,43.0,104.3,128.3,145.6,106.4
Чапаевка,54.5086818,66.5132517,85,162.0,86.13,43.0,104.2,130.3,148.5,107.7
Будённое,54.623726,66.513252,488,160.0,93.51,41.0,101.1,127.4,144.9,105.9
Кабань,54.6611966,66.4859984,77,162.0,97.5,43.0,101.4,124.1,142.7,104.9
Калиновка,54.5925449,66.4565179,87,166.0,94.34,47.0,101.1,127.4,144.9,105.9
Казанка,54.718452,66.954659,596,146.0,80.4,32.0,100.9,128.3,146.2,107.4
Узынколь,54.59211,67.152664,167,149.0,61.44,35.0,106.1,135.3,150.3,110.0
Айымжан,54.543686,67.090912,223,153.0,60.6,39.0,109.5,138.9,152.4,111.1
Святодуховка,54.484962,66.783897,354,153.0,70.25,34.0,108.8,133.7,150.1,109.1
Благовещенка,54.369076,66.97139,2806,157.0,52.84,38.0,112.4,141.2,154.5,111.9
Украинское,54.116165,66.659279,426,166.0,56.6,48.0,119.0,149.2,160.8,114.1
Новое,54.091621,66.53981,58,164.0,62.79,43.0,119.9,147.9,160.0,113.7
Кайранколь,54.032894,66.369087,653,165.0,69.36,32.0,118.0,154.5,159.6,114.3
Комсомольское,53.754959,66.402031,419,171.0,52.05,38.0,122.6,157.4,160.1,115.0
Хмельницкое,53.824615,66.061569,449,181.0,75.52,48.0,122.9,146.8,159.1,113.8
2632 км,54.8565139,69.2607726,,139.0,9.43,33.0,100.8,124.5,143.3,105.1
Краснознамённое,54.976139,68.806702,654,134.0,18.46,41.0,98.3,124.2,141.3,104.5
Горьковское,54.1858669,71.9383977,653,116.0,56.82,66.0,84.4,150.2,121.5,102.6
Арыкбалык,52.953907,68.198669,2050,392.0,5.4,66.0,123.7,123.9,153.3,105.2
Петровка,53.6162693,70.4615564,1204,166.0,14.34,24.0,79.6,168.6,113.7,102.9
Чкалово,53.625412,70.43367,2849,167.0,16.1,25.0,78.3,174.7,114.8,103.6
Нижний Бурлук,52.771709,68.169281,584,369.0,12.65,-3.0,112.8,118.2,152.0,99.4
Айсаринское,53.294186,71.898643,235,181.0,25.75,17.0,68.0,144.7,100.4,92.6
Аккудык,53.128433,72.34227,189,174.0,38.11,76.0,70.7,137.0,98.5,93.6
Золотая Нива,52.962009,71.943108,47,195.0,56.68,31.0,66.7,143.3,98.1,94.9
Карсаковка,52.798553,67.771004,101,288.0,1.98,6.0,122.3,123.1,160.4,102.2
Шоптыколь,52.43047,66.749649,415,204.0,0.47,18.0,119.6,144.4,154.6,105.4
Ялты,52.4594302,67.194389,381,274.0,0.74,13.0,115.5,132.3,156.5,102.3
Верхний Бурлук,52.839413,68.307625,217,416.0,14.53,29.0,112.8,117.0,150.4,98.9
Боровское,54.875137,68.8351312,163,131.0,12.81,33.0,98.4,127.2,142.8,106.0
Кондратовка,54.884083,68.808029,561,133.0,14.79,35.0,98.4,127.2,142.8,106.0
Измайловка,54.8892174,68.8511832,13,130.0,12.77,37.0,97.6,128.2,142.7,105.8
Актуесай,53.9165399,72.6553586,605,66.0,2.31,16.0,89.1,150.3,114.5,99.4
Бидайык,54.0295008,72.7368342,850,124.0,11.93,76.0,96.4,137.9,116.3,100.5
Целинное,53.9890371,66.0713217,184,168.0,83.94,35.0,120.4,144.2,156.8,113.1
Караагаш,54.323322,68.899139,176,134.0,21.63,29.0,110.7,153.6,150.0,115.4
Куприяновка,53.3391,66.959091,224,179.0,1.74,40.0,127.1,165.9,171.2,115.6
Акбулак,53.406972,72.4177394,429,128.0,44.43,58.0,74.1,140.1,102.4,93.9
Вознесенка,55.020363,68.95623,122,108.0,9.56,18.0,96.5,123.6,141.6,104.5
Каратал,53.86311,67.467735,465,148.0,2.46,16.0,119.8,163.0,163.2,115.5
Ыскака Ыбыраева,53.933348,67.5846568,463,140.0,2.35,24.0,116.9,164.6,162.6,115.5
Арай,53.752785,67.547203,710,178.0,9.07,44.0,125.6,154.1,164.8,115.5
Ленинградское,53.534927,71.546295,2296,131.0,0.63,10.0,73.5,149.0,104.6,95.2
Краснокаменка,53.731476,68.891396,284,229.0,31.17,15.0,97.7,176.7,143.2,116.0
Саумалколь,53.2940231,68.1060457,11639,306.0,14.35,45.0,122.4,146.1,159.3,111.9
Разгульное,52.396862,66.681755,364,204.0,0.39,12.0,119.6,144.4,154.6,105.4
Белое,55.061985,68.476593,643,138.0,40.47,48.0,100.6,119.0,140.5,103.5
Воскресеновка,54.880726,68.470741,840,142.0,34.22,44.0,99.0,125.7,143.3,106.3
Андреевка,54.515923,68.276672,540,142.0,18.46,35.0,109.2,152.0,151.5,114.5
Кызыласкер,54.426903,67.804146,423,156.0,25.48,46.0,112.7,156.9,155.2,115.7
Леденёво,54.699867,68.538467,520,137.0,17.02,38.0,102.5,136.6,147.5,110.8
Бике,54.614407,67.66539,326,149.0,47.79,39.0,106.4,142.3,151.4,111.6
Новомихайловка,54.654854,68.193947,780,140.0,33.91,38.0,105.8,135.1,147.5,110.3
Берёзовка,55.0142306,69.1710894,435,134.0,2.65,44.0,100.0,121.3,142.0,104.2
Ақсуат,53.612885,66.558327,682,182.0,36.64,49.0,126.4,166.1,165.9,116.8
Есиль,53.58086,66.803749,87,178.0,20.07,45.0,132.3,163.6,167.2,116.8
Антоновка,53.315826,68.434509,1044,285.0,14.19,25.0,109.9,148.2,148.8,110.4
Горное,53.841141,68.541351,195,164.0,17.82,-28.0,105.4,172.9,150.3,115.5
Орлиногорское,53.8115673,68.538841,45,226.0,16.51,34.0,105.4,172.9,150.3,115.5
Белоградовка,53.464417,66.630424,337,192.0,27.11,52.0,131.5,165.6,167.8,117.4
Приозёрное,53.749657,66.561279,10,174.0,42.74,41.0,125.7,158.1,163.7,116.2
Дашко-Николаевка,53.927147,70.341217,321,136.0,13.35,31.0,85.9,183.6,127.1,108.7
Карлуга,54.62233,68.881004,110,108.0,1.42,9.0,102.3,138.4,148.9,111.9
Новопокровка,53.729725,67.751305,620,184.0,22.72,50.0,124.4,153.5,163.6,115.0
Щучье,55.152699,68.504646,130,137.0,41.21,42.0,95.0,114.0,139.3,102.4
Караганды,54.666092,71.055885,568,130.0,83.98,44.0,95.8,128.0,135.6,108.0
Надёжка,54.7420524,71.0130941,539,128.0,91.22,41.0,97.1,127.7,136.9,108.0
Бинаш,54.820618,70.881683,153,127.0,97.87,40.0,96.9,123.9,138.9,107.6
Еремеевка,54.757515,70.890701,155,129.0,91.07,42.0,96.9,123.9,138.9,107.6
Ногайбай,54.881763,70.926979,82,127.0,99.9,46.0,94.3,122.1,139.8,107.2
Образец,54.875397,70.796257,222,129.0,92.73,48.0,95.7,123.2,140.9,107.4
Буденное,53.1812535,66.5524077,492,201.0,15.3,54.0,131.1,167.1,170.7,116.8
Куприяновка,53.221336,66.506973,21,200.0,19.79,56.0,129.6,168.8,171.1,117.2
Жамбыл,53.8894492,73.1089828,255,48.0,0.31,2.0,89.1,150.3,114.5,99.4
Ондирис,53.9784697,72.8934674,325,59.0,10.62,26.0,96.4,137.9,116.3,100.5
Кайрат,52.913689,73.55146,225,76.0,0.6,6.0,64.9,147.4,99.1,96.7
Мортык,53.5622505,72.9286611,388,123.0,22.35,53.0,78.3,152.1,107.0,96.4
Тельжан,53.660759,72.602715,346,125.0,14.9,55.0,79.7,153.3,109.4,97.2
Мальцево,54.2653401,68.3061657,174,131.0,0.68,22.0,108.9,161.1,153.3,116.2
Енбек,54.2487695,68.2516418,106,135.0,0.57,24.0,109.2,167.1,153.4,115.9
Есильское,54.2562283,68.2175455,135,120.0,0.51,13.0,110.6,161.1,154.0,116.3
Барневка,55.1645146,69.4042147,157,114.0,1.02,31.0,94.6,117.2,141.2,102.9
Семипалатное,54.4478457,68.6460797,203,112.0,1.5,15.0,106.7,153.9,151.7,115.4
Писаревка,54.63208,70.732681,319,130.0,75.82,43.0,94.8,136.5,139.8,108.5
Бастомар,54.528683,70.796867,472,128.0,64.95,41.0,95.0,142.3,138.5,109.5
Веселовка,54.577446,70.596321,180,130.0,69.23,36.0,95.6,134.8,140.5,108.2
Новоалександровка,54.496716,68.504807,180,116.0,7.95,12.0,107.5,151.0,150.5,114.1
Шаховское,54.7318153,69.3548342,740,141.0,19.79,48.0,102.8,129.7,146.8,108.2
Стрельниковка,53.9887247,68.3268526,150,161.0,2.18,5.0,55.4,169.5,154.0,115.8
Аксу,53.8229855,67.8078908,160,179.0,18.61,57.0,118.1,162.0,162.2,115.4
Жанасу,53.8326866,67.8870696,127,176.0,16.62,2.0,117.1,161.4,161.1,115.4
Карасай батыра,53.125417,68.0360983,259,285.0,3.37,9.0,119.4,137.5,158.9,108.1
Агынтай батыра,53.0620564,68.0518484,392,289.0,0.4,2.0,117.6,138.4,156.9,108.1
Орловка,53.1711642,68.0668688,92,267.0,0.61,6.0,119.1,142.9,157.8,110.1
Чистое,55.101256,68.3427794,118,134.0,49.63,36.0,97.3,120.5,140.1,103.4
Шалкар,53.1775137,68.5159591,487,319.0,8.16,-6.0,110.4,139.9,144.6,108.2
Жарколь,52.5101306,66.7043414,59,200.0,0.77,13.0,119.6,144.4,154.6,105.4
Сухорабовка,53.5736874,67.6029499,479,204.0,8.15,25.0,120.1,164.3,166.5,114.9
Становое,54.8205997,68.3186393,187,144.0,36.49,45.0,109.0,128.5,145.1,108.2
Александровка,54.2347464,68.1394609,427,132.0,0.81,25.0,110.3,165.2,155.5,116.3
Дайындык,54.5021537,69.0646453,177,141.0,17.71,40.0,105.0,145.7,149.7,112.7
Береке,54.9407252,69.8863836,154,137.0,39.84,51.0,96.9,123.5,142.3,105.8
Калугино,55.035027,68.7929902,232,128.0,20.09,38.0,98.3,124.2,141.3,104.5
Беловка,55.0665882,68.799088,210,131.0,20.49,36.0,95.1,120.2,140.2,103.6
Коваль,55.0501661,68.2970537,46,138.0,51.67,48.0,97.3,120.5,140.1,103.4
Токты,52.568994,67.4070882,99,260.0,0.29,7.0,119.0,125.3,159.5,101.3
Литвиновка,52.5853205,67.4967383,170,262.0,0.25,6.0,119.2,123.1,158.6,100.4
Салкынколь,52.5590287,67.4251127,242,262.0,0.36,10.0,119.0,125.3,159.5,101.3
Рухловка,52.7000541,67.6423072,50,274.0,0.35,5.0,123.6,120.5,161.8,100.9
Гусаковка,52.7506068,67.6686143,619,279.0,0.08,2.0,123.9,124.5,163.2,103.1
Матвеевка,52.8346101,67.8094625,177,289.0,2.28,7.0,122.3,123.1,160.4,102.2
Константиновка,52.8362175,67.8628921,802,298.0,5.0,16.0,120.5,121.1,157.7,101.2
Целинное,52.9028195,68.0451965,130,361.0,12.85,50.0,117.4,124.5,155.5,102.8
Горное,52.9292208,68.2443023,95,425.0,8.6,100.0,115.4,122.9,152.4,102.3
Красногорка,53.2729127,68.2108926,259,288.0,15.03,21.0,117.9,146.4,155.7,111.4
Галицино,53.3412386,68.2065367,36,291.0,10.59,31.0,117.9,146.4,155.7,111.4
Новоукраинка,53.3163262,67.9793858,858,303.0,13.13,54.0,121.6,149.0,162.2,112.2
Косколь,53.3417894,67.8201055,38,267.0,16.5,13.0,120.9,150.8,165.7,112.2
Заря,53.5154604,68.5305905,83,269.0,8.6,25.0,109.4,158.8,152.1,114.0
Жумысшы,53.5017169,68.5305691,70,273.0,8.67,29.0,109.4,158.8,152.1,114.0
Уголки,53.3217738,68.4860659,58,290.0,14.44,-16.0,107.9,149.6,145.6,110.1
Комаровка,53.3221071,68.2865523,344,298.0,10.59,38.0,112.0,150.2,152.2,110.8
Акан сере,53.3400471,68.3157348,80,281.0,8.57,21.0,112.0,150.2,152.2,110.8
Береславка,52.7426055,67.3025035,112,358.0,9.66,76.0,123.9,125.6,164.0,102.2
Новосветловка,52.7572822,67.5023173,367,336.0,4.53,31.0,120.5,129.6,166.2,103.7
Баян,53.0021046,67.9594087,139,308.0,8.59,0.0,120.4,130.8,156.3,105.3
Шолакозек,53.5661593,68.1713676,63,246.0,14.58,12.0,112.8,157.3,159.8,115.0
Егиндыагаш,53.6037617,68.0490588,90,217.0,20.73,18.0,116.9,156.4,164.7,115.5
Сарыбулак,53.4724157,68.1568193,69,278.0,11.48,20.0,116.9,158.5,160.9,114.7
Шоккарагай,53.4446403,68.0835846,111,275.0,14.91,15.0,118.1,153.0,161.6,113.6
Междуозёрное,53.4500592,67.9525852,40,229.0,23.55,-31.0,121.7,154.7,166.0,115.1
Колесниковка,53.3616932,67.9582929,62,283.0,17.73,34.0,121.0,151.1,163.8,113.6
Елецкое,53.405541,67.9525852,321,260.0,22.53,11.0,121.0,151.1,163.8,113.6
Айыртауское,53.3851202,67.9955864,101,300.0,20.73,40.0,121.0,151.1,163.8,113.6
Сырымбет,53.4818786,67.9940414,430,237.0,21.75,-23.0,121.7,154.7,166.0,115.1
Сулуколь,53.5268526,67.8197837,96,236.0,22.9,58.0,129.0,155.8,167.3,114.8
Прекрасное,53.3757157,67.4134022,10,206.0,0.4,8.0,123.8,157.4,169.8,114.3
Никольское,53.2335395,67.518239,109,241.0,5.1,17.0,128.4,149.8,171.7,111.8
Никольско-Бурлукское,53.2128178,67.6370072,253,234.0,0.32,1.0,125.6,149.7,169.9,111.6
Всеволодовка,53.4379945,67.4226665,148,204.0,0.45,9.0,123.8,157.4,169.8,114.3
Бурлык,53.336985,67.4790358,130,244.0,1.45,26.0,125.7,156.1,170.6,113.1
Аксёновка,53.207986,67.4355411,293,250.0,10.94,28.0,128.4,151.3,171.9,112.1
Светлое,53.7956828,68.2084894,246,186.0,0.54,4.0,109.8,167.1,155.4,115.1
Укили Ыбырай,53.7074529,68.5959291,152,213.0,11.77,-1.0,104.5,169.5,151.4,116.9
Кумтоккен,53.7638582,68.5752975,243,208.0,13.87,-5.0,102.8,175.3,149.4,116.3
Камсакты,53.5797163,68.4649343,266,232.0,0.44,8.0,109.3,162.7,153.4,115.5
Бирлестик,53.5842513,68.3524274,389,235.0,4.61,8.0,110.6,162.9,155.6,115.2
Альжан,53.0645321,68.643372,152,389.0,14.08,58.0,110.7,136.9,142.0,106.3
Заря,53.0150673,68.6056709,136,388.0,10.79,13.0,108.6,129.6,141.7,103.8
Ботай,53.3041595,67.6472211,38,261.0,4.87,39.0,123.7,155.3,169.3,112.8
Каратал,53.3910836,67.6432514,285,253.0,12.11,28.0,123.4,158.2,168.0,113.4
Высокое,53.2772496,67.6776695,61,259.0,6.09,28.0,122.3,152.7,167.3,112.4
Каракамыс,53.6986121,68.268013,147,208.0,3.09,9.0,109.4,165.1,155.3,114.8
Даукара,53.6542022,68.1358337,274,213.0,12.76,14.0,113.6,161.5,159.9,115.2
Жаксы Жалгызтау,52.6421651,68.2249474,132,370.0,1.03,9.0,41.1,109.4,147.1,95.3
Сарысай,53.0826834,67.7342748,70,282.0,5.58,44.0,124.5,142.6,167.9,109.9
Петропавловка,53.0067014,67.695136,46,289.0,14.1,51.0,124.5,134.4,165.7,107.1
Карловка,53.0192238,67.7919101,42,311.0,13.37,74.0,122.5,132.5,162.2,106.4
Бурлык,53.1656074,67.9684638,56,260.0,0.71,5.0,119.3,145.5,160.9,110.5
Кутузовка,53.1910447,67.8534507,148,263.0,0.43,12.0,120.6,146.5,163.7,111.0
Кирилловка,53.1477267,67.7912511,749,254.0,0.63,12.0,121.2,141.0,164.5,109.1
Каменный Брод,53.0945653,67.6908874,497,257.0,4.71,20.0,124.5,142.6,167.9,109.9
Сарытубек,53.2005831,67.9444312,43,264.0,0.6,10.0,120.6,146.5,163.7,111.0
Уялы,54.1629868,72.2976779,350,128.0,36.68,78.0,84.4,150.2,121.5,102.6
Аксары,54.2971934,72.2644614,166,121.0,49.69,71.0,89.4,142.9,124.6,103.7
Ульгили,53.597446,72.0809125,252,98.0,32.67,-16.0,78.3,152.1,107.0,96.4
Тугуржап,53.5150011,71.9287347,37,128.0,22.45,-18.0,73.5,149.0,104.6,95.2
Майское,53.8957917,72.2666072,411,95.0,27.75,45.0,89.1,150.3,114.5,99.4
Кызылту,53.718933,71.5046024,387,109.0,19.09,-5.0,79.7,153.3,109.4,97.2
Кулыколь,53.7199259,71.9975228,671,66.0,32.46,-48.0,79.7,153.3,109.4,97.2
Карашилик,53.7794565,72.0460653,266,64.0,38.99,-50.0,79.3,160.3,112.2,98.1
Киши Караой,54.1047789,71.3787102,320,86.0,50.87,1.0,96.6,137.4,119.6,102.3
Байтус,53.989253,71.1807632,125,80.0,34.17,-19.0,84.8,144.0,120.0,102.6
Кенащы,54.0204148,71.0951686,203,93.0,30.37,8.0,93.4,148.5,120.8,103.0
Ащиколь,53.5948481,71.1249303,321,138.0,21.92,37.0,79.6,150.6,108.8,97.3
Безлесное,54.1278581,69.456017,88,134.0,25.74,-1.0,99.8,174.1,141.4,113.6
Каратомар,54.5032807,69.2173004,225,140.0,24.11,40.0,104.3,146.6,149.1,112.1
Амангельды,54.3259971,69.4720244,42,137.0,41.61,2.0,104.4,158.9,145.8,112.8
Степное,54.229668,69.52775,142,135.0,30.59,0.0,104.6,165.9,143.7,113.3
Южное,54.1012926,69.6309163,85,143.0,15.16,8.0,100.2,171.5,141.4,113.3
Борки,54.6260838,69.7526908,10,132.0,46.97,36.0,104.9,138.7,145.5,108.7
Барыколь,54.1755982,69.9659586,53,141.0,21.41,5.0,98.6,163.7,142.7,112.2
Кучковка,54.1470035,69.7863578,91,140.0,16.26,5.0,105.9,159.7,141.4,112.7
Добровольское,54.4030707,69.5706224,249,140.0,46.92,5.0,105.8,153.3,146.2,111.5
Новороссийское,54.3709461,69.9273991,52,134.0,42.15,-1.0,103.6,150.0,144.2,110.8
Талапкер,54.431638,68.3590364,41,124.0,8.09,17.0,108.5,154.9,152.4,115.9
Трудовое,54.5783551,68.4486866,273,140.0,15.44,38.0,112.8,141.3,149.5,112.8
Владимировка,54.4874042,68.1685352,41,143.0,20.04,35.0,109.3,152.4,152.1,114.7
Поляковка,54.3841563,68.4238815,43,115.0,1.68,11.0,108.5,154.9,152.4,115.9
Амангельдинское,54.355137,68.3443915,475,121.0,1.77,-1.0,109.4,156.1,153.0,116.1
Жаркайын,54.1861968,67.8326797,80,120.0,0.39,11.0,113.6,161.5,157.7,116.1
Мектеп,54.0520573,67.6722836,171,128.0,0.61,9.0,115.2,164.0,159.6,116.0
Новоандреевка,54.6872164,68.4011149,58,137.0,23.11,38.0,103.4,134.9,147.5,110.7
Бостандык,54.5696112,68.1605315,214,144.0,27.53,37.0,105.7,144.8,150.0,112.7
Бексеит,54.6072476,68.0857944,356,143.0,33.7,36.0,105.7,143.2,150.1,112.4
Луговое,54.3862681,68.5906505,40,116.0,1.55,8.0,106.7,153.9,151.7,115.4
Тонкошуровка,53.9038831,68.6848497,93,168.0,26.84,12.0,105.4,176.9,148.6,116.9
Степное,53.8285471,68.745017,79,174.0,27.05,-39.0,101.3,179.4,148.6,117.1
Ивано-Петровка,53.9233972,67.9904365,284,176.0,11.58,7.0,113.0,161.6,159.1,115.8
Лузинка,53.9194799,67.8829765,97,179.0,14.06,58.0,113.3,161.8,160.2,115.7
Актас,53.8510077,68.2069015,170,180.0,3.46,6.0,110.4,168.6,155.6,115.7
Карагай,53.8888116,68.2977962,121,185.0,7.29,18.0,107.8,171.2,153.5,115.4
Алабие,54.1109933,68.2352685,103,159.0,12.67,3.0,112.5,165.9,155.2,116.0
Черуновка,54.0460356,67.9920673,175,163.0,15.23,54.0,112.6,164.1,158.4,116.1
Тауагаш,54.3952761,67.8949713,283,148.0,20.62,38.0,111.8,158.9,155.0,116.2
Бирлик,54.2427105,68.1035614,155,118.0,0.57,13.0,110.3,165.2,155.5,116.3
Мадениет,54.2982828,68.1356191,29,130.0,4.4,19.0,112.9,161.6,154.8,116.5
Леонидовка,54.0768654,68.6955785,56,146.0,26.11,-10.0,103.8,176.4,148.9,116.2
Советское,54.0462372,68.4159851,209,163.0,7.98,7.0,45.3,169.9,152.2,115.6
Амангельды,54.1774318,67.9381871,60,134.0,0.52,29.0,112.2,161.1,157.5,116.4
Сарыман,54.310565,67.8216075,28,149.0,12.55,39.0,113.1,159.7,156.4,116.0
Ульги,54.3670585,67.1712684,27,158.0,42.73,39.0,111.9,145.6,155.1,112.7
Баян,54.3207286,67.4699591,440,156.0,25.99,42.0,114.4,150.6,157.2,114.5
Баймаганбета Изтолина,54.2579298,67.2894144,60,156.0,28.91,37.0,115.4,151.9,157.0,114.0
Архангелка,54.3835815,67.3846864,434,155.0,34.61,41.0,112.3,147.0,155.4,113.4
Айтуар,54.3206785,67.2158145,158,153.0,37.08,34.0,114.6,148.5,156.9,113.6
Озерное,54.2726424,66.2366795,430,171.0,88.94,53.0,107.5,139.5,151.9,110.6
Каракамыс,54.2530914,66.3540744,59,160.0,81.18,42.0,111.4,139.8,153.8,110.8
Сабит,54.4945581,66.6364574,96,164.0,78.59,45.0,105.0,133.0,149.1,108.1
Ольговка,54.3638081,66.6235828,36,162.0,72.24,47.0,110.0,135.0,152.8,109.6
Жанажол,54.3931274,66.490159,242,156.0,82.32,32.0,108.5,135.0,152.1,109.4
Бауманское,54.2327534,66.2374734,160,162.0,90.08,29.0,111.0,144.7,154.4,112.0
Майбалык,54.281738,66.7903089,164,162.0,58.76,47.0,116.2,142.6,156.4,112.2
Октябрь,54.6526087,67.7450037,25,141.0,50.72,31.0,104.5,134.0,148.8,109.6
Симаки,54.7320175,67.8026175,49,148.0,56.0,40.0,104.9,137.9,148.4,109.8
Новорыбинка,54.6625883,67.4094486,359,147.0,58.54,33.0,104.1,133.7,149.1,109.1
Миролюбово,54.6953399,67.4625349,145,146.0,60.53,32.0,104.2,132.7,149.3,109.3
Петровка,54.4954928,66.9772911,226,152.0,61.7,33.0,107.7,136.2,151.6,110.5
Мирное,54.5739026,67.3085975,416,144.0,53.43,30.0,107.4,136.5,151.1,110.4
Железное,54.7768806,67.3440456,361,148.0,71.84,34.0,100.5,126.3,145.5,107.0
Троицкое,54.4676933,67.6668548,535,148.0,32.32,34.0,110.4,149.5,153.5,113.4
Озерное,53.8539284,68.8841164,321,164.0,36.17,-49.0,104.0,178.2,146.3,117.3
Малое Белое,54.9002536,69.2763519,53,136.0,9.43,39.0,100.8,124.5,143.3,105.1
Гончаровка,55.2013817,69.4533562,97,131.0,0.74,43.0,98.5,116.7,141.4,103.0
Новогеоргиевка,55.0711684,69.8627042,29,136.0,30.23,51.0,95.8,119.7,141.7,104.3
Кондыбай,53.7484063,72.5124692,401,128.0,17.68,58.0,79.7,153.3,109.4,97.2
Кобенсай,53.7464014,72.7824497,373,76.0,0.19,3.0,79.7,153.3,109.4,97.2
Кузексай,53.8505015,72.6961898,108,57.0,7.12,17.0,89.1,150.3,114.5,99.4
Жас Улан,53.4194052,72.7573012,273,111.0,36.05,41.0,74.1,140.1,102.4,93.9
Карашилик,53.4267191,72.552123,145,124.0,38.31,54.0,74.1,140.1,102.4,93.9
Коктерек,53.4759917,73.1992435,251,124.0,27.35,42.0,73.5,149.0,104.6,95.2
Каратерек,53.9206425,73.5117101,181,128.0,2.71,6.0,89.1,150.3,114.5,99.4
Жаскайрат,53.0771667,73.5541105,139,79.0,4.37,14.0,70.7,137.0,98.5,93.6
Тлеусай,53.7318571,73.2736587,200,88.0,0.74,21.0,79.7,153.3,109.4,97.2
Амангельды,53.8235571,73.3421087,37,122.0,10.56,54.0,79.3,160.3,112.2,98.1
Кулыколь,52.7802874,73.7572288,718,82.0,0.96,2.0,66.1,147.2,100.8,98.7
Каратал,52.7425276,73.7021255,204,83.0,3.41,3.0,68.2,145.4,101.7,100.0
Береке,52.7437356,73.590846,152,86.0,7.31,0.0,68.2,145.4,101.7,100.0
Суатколь,54.1412345,66.9830417,10,162.0,39.83,38.0,117.6,151.8,160.5,114.7
Жаркен,54.0364451,67.0563389,248,165.0,29.49,47.0,118.7,155.4,161.9,115.1
Интымак,53.9418918,67.0826911,50,163.0,23.95,41.0,120.5,159.1,163.4,115.1
Дмитриевка,53.8988767,67.004671,454,167.0,28.17,45.0,119.8,159.0,163.3,115.2
Акжан,53.8024377,66.6982555,343,175.0,38.0,42.0,125.0,156.4,162.2,115.5
Рассвет,53.803971,66.5284824,35,180.0,48.02,45.0,122.2,158.9,160.7,115.3
Ракитное,53.9301611,66.8209458,50,168.0,39.35,35.0,118.0,160.1,162.6,115.4
Степное,53.8946412,66.8524809,469,166.0,35.09,33.0,119.4,159.5,163.2,115.4
Дружба,53.8469571,66.9298267,266,168.0,27.76,35.0,124.9,156.2,163.8,115.3
Северное,53.9985845,66.5322507,10,166.0,58.51,33.0,120.7,153.1,160.4,114.5
Докучаево,53.911973,66.4887856,613,172.0,55.63,39.0,121.7,156.1,160.4,114.9
Аймак,53.4569335,70.1337146,383,236.0,40.78,94.0,79.3,180.1,115.8,104.1
Талдыколь,53.5002747,70.7162904,7,177.0,14.65,35.0,78.6,163.3,109.5,100.1
Золоторунное,53.5743399,70.7659435,16,163.0,8.5,21.0,80.7,159.4,110.9,100.1
Калиновка,53.7243418,70.0766372,327,165.0,21.14,17.0,83.9,184.5,121.7,107.4
Константиновка,53.6939115,70.1492929,209,157.0,26.95,9.0,83.9,184.5,121.7,107.4
Караагаш,53.6301601,70.1149606,665,195.0,28.87,38.0,81.2,184.9,118.6,105.9
Красный Яр,55.3697588,69.3669891,61,96.0,0.5,11.0,93.0,111.2,137.5,99.9
Кустовое,55.1987611,69.3896699,263,102.0,1.81,13.0,94.6,117.2,141.2,102.9
Красноярка,55.2399127,69.4346237,324,99.0,0.46,11.0,94.6,117.2,141.2,102.9
Желяково,55.2908588,69.3978667,115,96.0,0.42,10.0,93.2,114.1,139.5,101.4
Караагаш,54.2256541,66.9441175,48,156.0,47.27,41.0,116.4,146.5,158.7,113.7
Жамбыл,54.2018675,66.9842842,323,158.0,44.01,43.0,117.1,146.7,158.5,113.9
Есперли,54.1121254,66.7873907,121,160.0,48.92,42.0,117.3,150.4,160.8,114.3
Сумное,55.3315612,69.0555095,149,132.0,17.81,44.0,99.9,112.1,138.8,101.7
Остановочный пункт 2603 км,54.8760221,68.8476544,32,131.0,12.25,33.0,98.4,127.2,142.8,106.0
Николаевка,55.196128,68.8156986,15,135.0,25.25,46.0,95.7,114.8,139.2,102.8
Дубровное,55.2754486,68.9101982,160,141.0,25.33,47.0,96.3,112.2,138.3,101.6
Орёл,54.9648539,68.3253908,37,138.0,46.27,40.0,99.3,123.9,141.4,104.6
Токаревка,54.7259833,68.2347107,113,143.0,34.55,44.0,105.8,135.1,147.5,110.3
Минкесер,54.5993676,67.9434871,796,144.0,39.13,36.0,107.7,143.3,150.5,112.0
Дачное,54.6272266,67.5014376,30,144.0,52.56,30.0,107.1,135.3,151.9,110.9
Степное,54.4578155,67.8199768,82,149.0,28.77,39.0,117.3,140.6,153.2,113.8
Раздольное,54.5642246,67.7935409,94,145.0,40.45,35.0,107.6,142.9,150.9,111.8
Новодубровное,54.8076973,67.9845142,163,146.0,52.98,47.0,104.9,133.3,145.0,107.8
Михайловка,54.9382866,67.8810882,448,139.0,66.38,40.0,97.3,125.3,142.5,105.8
2629 км,54.855286,69.2117075,,138.0,6.74,44.0,101.9,124.2,143.1,105.2
Сарыбулак,52.8805271,67.3163999,40,333.0,15.74,97.0,129.8,132.8,171.0,106.4
Мадениет,53.0012686,67.2152721,9,271.0,10.42,17.0,132.5,139.2,175.1,109.2
Кокалажар,52.9259016,67.0963322,419,246.0,0.54,15.0,130.8,137.8,173.0,107.5
Чернозубовка,52.6929291,66.6287558,271,191.0,0.49,20.0,124.3,154.2,162.0,109.0
Стерлитамак,52.7725291,66.5557902,31,191.0,0.75,24.0,129.6,152.5,165.7,110.6
Григорьевка,52.8004769,66.819501,25,220.0,1.09,26.0,126.7,146.8,166.6,107.9
Возвышенка,52.7977292,66.7524333,333,227.0,1.0,36.0,126.7,146.8,166.6,107.9
Брилёвка,52.767789,66.7150712,24,191.0,0.41,7.0,126.5,151.4,165.8,109.2
Раисовка,52.9180264,67.4657893,606,344.0,21.65,39.0,129.3,129.7,169.7,106.0
Жанасу,53.1061326,67.452007,46,293.0,15.27,55.0,129.5,141.7,171.4,110.0
Урожайное,52.7713953,66.5026458,732,197.0,0.51,31.0,126.7,157.9,166.3,111.8
Степное,52.7552454,66.4173739,36,207.0,5.33,40.0,124.3,160.9,167.4,112.9
Чернобаевка,52.8799684,67.012886,161,230.0,0.22,9.0,130.6,140.8,173.3,108.1
Берёзовка,52.9062602,66.9168747,240,247.0,6.08,25.0,130.5,142.9,172.0,108.9
Сарыадыр,52.7906559,67.0625215,130,258.0,5.81,42.0,126.3,133.4,168.7,105.0
Новоселовка,53.2008338,67.0367521,895,199.0,5.63,-9.0,130.2,159.8,172.3,114.1
Мукур,53.2926321,67.0654879,80,187.0,3.94,49.0,124.5,164.8,171.5,115.1
Шукырколь,53.1243801,67.3033995,391,265.0,16.4,47.0,130.6,144.2,172.5,110.3
Караагаш,53.0428349,67.154194,52,265.0,9.82,44.0,132.5,139.2,175.1,109.2
15 лет Казахстана,53.2095928,67.3511423,126,248.0,14.35,41.0,128.4,151.3,171.9,112.1
Конырсу,52.3559913,66.7162477,22,215.0,3.38,22.0,119.6,144.4,154.6,105.4
Большой Талсай,52.470635,66.76267,16,201.0,0.49,18.0,119.9,141.7,155.0,104.5
Симоновка,52.6464487,66.920633,31,225.0,0.51,12.0,121.3,138.2,159.6,104.3
Князевка,52.7283691,67.1480017,13,299.0,3.49,13.0,123.4,130.1,164.5,103.0
Дубровка,52.6041019,67.1266433,17,271.0,2.77,36.0,120.6,131.9,160.5,102.8
Гаршино,52.5535027,67.0469561,273,239.0,0.67,13.0,124.2,133.4,160.3,103.4
Пески,53.2529089,66.9178988,605,179.0,0.99,37.0,128.7,167.4,170.9,116.1
Конюхово,55.1299613,70.6509694,309,132.0,74.31,42.0,96.9,120.6,139.2,105.3
Малая Возвышенка,54.4139083,70.818371,19,127.0,52.73,40.0,96.6,145.0,138.2,110.4
Александровка,54.4323963,71.0879637,251,126.0,60.92,40.0,94.4,142.6,133.6,108.4
Дюсеке,54.7244325,70.9100427,78,128.0,87.71,41.0,96.6,130.6,138.2,108.0
Сарытомар,54.6385889,70.1635414,216,135.0,74.46,-1.0,101.9,135.4,143.0,107.6
Жастар,54.566559,70.2167163,194,131.0,67.72,-5.0,101.9,135.4,143.0,107.6
Куралай,55.0372697,70.8846804,228,115.0,91.23,34.0,93.9,121.0,139.9,106.7
Рощино,54.6666837,70.3587198,85,133.0,80.21,28.0,99.0,128.7,142.3,107.1
Сулышок,54.7612095,70.6189584,181,130.0,89.67,36.0,99.0,125.9,141.6,107.7
Успенка,54.7637599,70.5079364,367,132.0,84.43,51.0,99.2,125.3,141.6,107.1
Уваковское,54.7205307,70.6706714,57,131.0,85.28,37.0,99.4,130.1,140.3,107.8
Косколь,54.7043543,70.668869,23,129.0,83.48,35.0,99.4,130.1,140.3,107.8
Узунколь,54.462456,70.733238,475,127.0,57.07,40.0,95.8,141.8,139.5,109.5
Куломзино,55.2500656,70.4713725,117,133.0,61.03,45.0,101.9,112.2,138.7,103.0
Урожайное,54.8200002,70.7329845,19,129.0,92.3,48.0,97.8,125.4,141.0,107.7
Пролетарка,54.9735743,70.5453157,250,134.0,73.49,53.0,91.9,126.1,139.8,105.4
Садовка,53.4370231,67.3325872,61,214.0,6.33,19.0,123.6,159.2,170.0,114.7
Рясинка,53.4453564,67.2083044,79,205.0,6.63,72.0,124.8,162.5,170.2,115.2
Двойники,53.5838565,67.3073959,124,188.0,5.45,47.0,126.5,160.9,167.6,115.6
Афанасьевка,53.5032357,67.24092,400,207.0,7.15,74.0,124.8,166.2,169.4,116.0
Жалтыр,53.9634836,67.2003221,231,160.0,17.42,42.0,120.6,156.1,162.0,115.2
Мерген,53.8805149,67.1992492,339,162.0,15.35,40.0,119.3,160.4,163.5,115.2
Коноваловка,53.6485045,67.195301,58,143.0,2.61,7.0,129.6,158.9,168.0,116.0
Городецкое,53.7382034,67.1063804,387,165.0,11.03,32.0,129.8,158.8,166.4,115.7
Баганаты,53.7274141,67.2249126,28,158.0,6.04,25.0,134.1,147.1,166.2,115.5
Коктерек,53.9623475,67.6798582,71,141.0,1.55,19.0,117.0,164.9,160.4,115.6
Аканбарак,53.9128829,67.3781633,688,155.0,4.51,34.0,122.7,161.2,163.6,115.5
Повозочное,54.2425601,67.5386236,701,154.0,17.41,38.0,115.4,156.8,158.7,115.2
Ортаколь,54.2300004,67.4782312,32,157.0,18.17,38.0,115.4,156.8,158.7,115.2
Меней,54.2429612,67.6168584,108,153.0,13.32,37.0,115.1,158.4,158.4,115.4
Бирлик,54.1420941,67.6818752,252,138.0,4.41,24.0,115.2,164.0,159.6,116.0
Енбек,53.7556128,67.95825,56,182.0,14.7,4.0,113.6,165.7,159.8,115.4
Белоглинка,53.6770612,67.826972,21,187.0,25.05,8.0,124.4,153.5,163.6,115.0
Социал,53.6880668,67.3055076,104,164.0,3.78,30.0,132.2,148.0,166.2,115.4
Ровное,53.7714425,67.6053571,73,180.0,12.62,46.0,121.4,164.5,164.1,115.5
Алкаагаш,53.8114974,67.5909376,151,175.0,10.48,41.0,121.4,164.5,164.1,115.5
Кенес,54.0476734,67.5974607,248,141.0,2.84,25.0,119.1,164.4,161.2,115.7
Астаган,54.1140624,67.4065303,125,157.0,14.98,38.0,125.1,155.5,160.5,115.6
Ступинка,54.0147291,67.3786352,227,161.0,11.7,39.0,123.7,160.4,162.0,115.6
Семиполка,54.1257332,67.2814749,522,160.0,23.21,41.0,118.2,157.9,160.5,115.4
Балуан,54.2084526,67.1645093,40,162.0,33.15,47.0,116.8,152.0,158.7,114.5
Крещенка,53.4282278,67.0562982,465,171.0,0.69,37.0,125.8,165.9,170.5,115.8
Белоградовка,53.4953477,66.9956589,99,172.0,6.88,39.0,130.2,167.2,169.6,116.7
Ольгинка,53.532911,67.4555396,266,192.0,0.62,6.0,125.6,161.3,168.5,114.8
Богатыровка,53.8320424,69.3324422,98,172.0,23.67,8.0,92.0,185.8,138.3,114.7
Озерное,53.5066304,70.280528,150,221.0,29.6,79.0,70.7,187.2,113.7,103.0
Северное,53.6988916,69.6248245,49,170.0,0.26,2.0,94.2,186.0,129.5,111.0
Краснодольское,53.9555301,68.8276289,156,156.0,34.07,0.0,96.1,189.6,147.6,116.8
Южное,53.9757772,68.7356184,125,156.0,27.79,0.0,101.1,179.3,148.8,116.7
Новоберёзовка,53.6939115,70.3287649,34,156.0,24.06,14.0,87.9,175.2,118.4,105.6
Шункырколь,53.8672569,70.8470535,164,127.0,15.02,28.0,90.8,146.1,119.8,103.8
Тихоокеанское,53.9349446,70.8029151,390,120.0,10.24,35.0,90.8,146.1,119.8,103.8
Алабота,53.7980148,70.9733533,37,108.0,8.97,9.0,85.2,149.9,116.4,101.1
Макашевка,54.0519313,68.9453887,398,139.0,41.55,-17.0,100.9,181.5,146.5,116.3
Октябрьское,54.1004005,68.9015722,26,141.0,39.01,33.0,100.9,181.5,146.5,116.3
Краматоровка,54.0508228,68.9904069,63,137.0,44.46,-19.0,107.6,167.3,145.2,115.8
Димитровка,54.2334809,68.8958644,70,135.0,27.14,32.0,104.8,166.6,148.0,115.6
Талап,53.6837144,68.7998199,113,217.0,24.32,-5.0,100.5,176.0,146.4,116.7
Мадениет,53.62549,68.7238598,116,251.0,17.74,29.0,103.9,164.1,147.9,115.7
Привольное,53.2180602,66.9173812,950,180.0,0.8,33.0,131.2,161.3,171.7,114.7
Жамбыл,53.8386141,68.5289597,43,170.0,16.96,-22.0,105.4,172.9,150.3,115.5
Ивановка,54.6591319,68.9296519,,117.0,0.54,23.0,102.4,136.9,147.2,110.1
Искра,54.8169142,68.4480049,247,141.0,30.74,42.0,107.8,129.6,145.4,108.5
Каратал,54.2488791,67.975502,76,119.0,4.01,6.0,110.1,161.7,156.7,116.4
Сосновка,54.9350816,69.7138953,,136.0,33.01,52.0,95.3,124.9,143.0,105.8
Нурымбет,54.4560724,66.1028358,93,162.0,106.68,35.0,102.7,129.4,146.8,107.5
Жанажол,54.3539289,69.5487152,,135.0,42.25,0.0,107.7,154.0,147.0,111.9
